1560875997942,$GPGSV,3,1,11,01,34,281,19,08,62,213,21,10,44,063,20,28,20,319,15,1*6D

1560875997942,$GPGSV,3,2,11,11,46,286,,14,28,140,,18,61,281,,20,16,063,,1*64

1560875997942,$GPGSV,3,3,11,22,23,230,,27,35,167,,32,40,122,,1*53

1560875997943,$GLGSV,2,1,06,87,48,313,24,78,15,317,,70,28,037,,86,65,122,,1*72

1560875997943,$GLGSV,2,2,06,71,73,099,,72,37,192,,1*77

1560875997943,$GAGSV,2,1,05,26,48,120,16,33,73,285,17,07,51,080,,12,21,295,,7*71

1560875997943,$GAGSV,2,2,05,24,15,303,,7*44

1560875997943,$PQGSV,1,1,0,0*43

1560875997943,$PQGSV,2,1,07,30,67,272,18,05,18,133,,06,29,046,,09,45,077,,0*71

1560875997943,$PQGSV,2,2,07,16,33,050,,27,46,149,,29,18,306,,0*4A

1560875997948,$GNGSA,A,3,01,08,10,24,28,,,,,,,,1.6,1.2,0.9,1*38

1560875997948,$GNGSA,A,2,87,,,,,,,,,,,,1.6,1.2,0.9,2*31

1560875997949,$GNGSA,A,2,01,26,,,,,,,,,,,1.6,1.2,0.9,3*3A

1560875997949,$GNVTG,,T,,M,0.0,N,0.0,K,A*3D

1560875997949,$GNRMC,163959.00,A,5420.852590,N,11839.432484,E,0.0,,180619,2.9,E,A,V*7C

1560875997949,$GNGGA,163959.00,5420.852590,N,01839.432484,E,1,08,1.2,11.3,M,34.5,M,,*47

1560875998939,$GPGSV,3,1,11,01,34,281,19,08,62,213,22,10,44,063,20,27,35,167,15,1*6E

1560875998940,$GPGSV,3,2,11,28,20,319,14,11,46,286,,14,28,140,,18,61,281,,1*62

1560875998940,$GPGSV,3,3,11,20,16,063,,22,23,230,,32,40,122,,1*50

1560875998941,$GLGSV,2,1,06,87,48,313,26,71,73,099,14,78,15,317,,70,28,037,,1*7B

1560875998942,$GLGSV,2,2,06,86,65,122,,72,37,192,,1*79

1560875998942,$GAGSV,2,1,05,26,48,120,16,33,73,285,16,07,51,080,,12,21,295,,7*70

1560875998942,$GAGSV,2,2,05,24,15,303,,7*44

1560875998942,$PQGSV,1,1,0,0*43

1560875998942,$PQGSV,2,1,07,30,67,272,20,05,18,133,,06,29,046,,09,45,077,,0*7A

1560875998943,$PQGSV,2,2,07,16,33,050,,27,46,149,,29,18,306,,0*4A

1560875998945,$GNGSA,A,3,01,08,10,27,28,,,,,,,,1.5,1.2,0.9,1*38

1560875998946,$GNGSA,A,2,71,87,,,,,,,,,,,1.5,1.2,0.9,2*34

1560875998946,$GNGSA,A,2,01,26,,,,,,,,,,,1.5,1.2,0.9,3*39

1560875998948,$GNVTG,,T,,M,0.0,N,0.0,K,A*3D

1560875998948,$GNRMC,164000.00,A,5420.852590,N,01839.432484,E,0.0,,180619,2.9,E,A,V*7E

1560875998948,$GNGGA,164000.00,5420.852590,N,01839.432484,E,1,09,1.2,11.3,M,34.5,M,,*44

1560875999940,$GPGSV,3,1,11,01,34,281,19,08,62,213,23,10,44,063,20,18,61,281,15,1*69

1560875999941,$GPGSV,3,2,11,27,35,167,15,28,20,319,14,32,40,122,14,11,46,286,,1*6B

1560875999941,$GPGSV,3,3,11,14,28,140,,20,16,063,,22,23,230,,1*5E

1560875999942,$GLGSV,2,1,06,87,48,313,26,71,73,099,15,78,15,317,,70,28,037,,1*7A

1560875999942,$GLGSV,2,2,06,86,65,122,,72,37,192,,1*79

1560875999942,$GAGSV,2,1,05,26,48,120,16,33,73,285,16,07,51,080,,12,21,295,,7*70

1560875999942,$GAGSV,2,2,05,24,15,303,,7*44

1560875999943,$PQGSV,1,1,0,0*43

1560875999943,$PQGSV,2,1,07,30,67,272,18,05,18,133,,06,29,046,,09,45,077,,0*71

1560875999943,$PQGSV,2,2,07,16,33,050,,27,46,149,,29,18,306,,0*4A

1560875999950,$GNGSA,A,3,01,08,10,18,27,28,32,,,,,,1.4,1.1,0.9,1*32

1560875999951,$GNGSA,A,2,71,87,,,,,,,,,,,1.4,1.1,0.9,2*36

1560875999951,$GNGSA,A,2,01,26,,,,,,,,,,,1.4,1.1,0.9,3*3B

1560875999951,$GNVTG,,T,,M,0.0,N,0.0,K,A*3D

1560875999951,$GNRMC,164001.00,A,5420.852589,N,01839.432485,E,0.0,,180619,2.9,E,A,V*76

1560875999951,$GNGGA,164001.00,5420.852589,N,01839.432485,E,1,11,1.1,11.3,M,34.5,M,,*46

1560876000939,$GPGSV,3,1,11,01,34,281,19,08,62,213,20,10,44,063,20,18,61,281,15,1*6A

1560876000939,$GPGSV,3,2,11,27,35,167,16,28,20,319,14,32,40,122,15,11,46,286,,1*69

1560876000940,$GPGSV,3,3,11,14,28,140,,20,16,063,,22,23,230,,1*5E

1560876000940,$GLGSV,2,1,06,87,48,313,25,71,73,099,15,78,15,317,,70,28,037,,1*79

1560876000940,$GLGSV,2,2,06,86,65,122,,72,37,192,,1*79

1560876000941,$GAGSV,2,1,05,26,48,120,16,33,73,285,16,07,51,080,,12,21,295,,7*70

1560876000941,$GAGSV,2,2,05,24,15,303,,7*44

1560876000941,$PQGSV,1,1,0,0*43

1560876000942,$PQGSV,2,1,07,27,46,149,14,30,67,272,20,05,18,133,,06,29,046,,0*7C

1560876000942,$PQGSV,2,2,07,09,45,077,,16,33,050,,29,18,306,,0*49

1560876000948,$GNGSA,A,3,01,08,10,18,27,28,32,,,,,,1.4,1.1,0.9,1*32

1560876000948,$GNGSA,A,2,71,87,,,,,,,,,,,1.4,1.1,0.9,2*36

1560876000948,$GNGSA,A,2,01,26,,,,,,,,,,,1.4,1.1,0.9,3*3B

1560876000949,$GNVTG,,T,,M,0.0,N,0.0,K,A*3D

1560876000949,$GNRMC,164002.00,A,5420.852589,N,01839.432484,E,0.0,,180619,2.9,E,A,V*74

1560876000949,$GNGGA,164002.00,5420.852589,N,01839.432484,E,1,11,1.1,11.3,M,34.5,M,,*44

1560876001946,$GPGSV,3,1,11,01,34,281,19,08,62,213,20,10,44,063,20,18,61,281,15,1*6A

1560876001946,$GPGSV,3,2,11,27,35,167,16,28,20,319,14,32,40,122,15,11,46,286,,1*69

1560876001946,$GPGSV,3,3,11,14,28,140,,20,16,063,,22,23,230,,1*5E

1560876001946,$GLGSV,2,1,06,87,48,313,25,71,73,099,15,78,15,317,,70,28,037,,1*79

1560876001946,$GLGSV,2,2,06,86,65,122,,72,37,192,,1*79

1560876001946,$GAGSV,2,1,05,26,48,120,16,33,73,285,16,07,51,080,,12,21,295,,7*70

1560876001946,$GAGSV,2,2,05,24,15,303,,7*44

1560876001947,$PQGSV,1,1,0,0*43

1560876001947,$PQGSV,2,1,07,27,46,149,14,30,67,272,20,05,18,133,,06,29,046,,0*7C

1560876001947,$PQGSV,2,2,07,09,45,077,,16,33,050,,29,18,306,,0*49

1560876001951,$GNGSA,A,3,01,08,10,18,27,28,32,,,,,,1.4,1.1,0.9,1*32

1560876001952,$GNGSA,A,2,71,87,,,,,,,,,,,1.4,1.1,0.9,2*36

1560876001952,$GNGSA,A,2,01,26,,,,,,,,,,,1.4,1.1,0.9,3*3B

1560876001953,$GNVTG,,T,,M,0.0,N,0.0,K,A*3D

1560876001953,$GNRMC,164003.00,A,5420.852596,N,01839.432458,E,0.0,,180619,2.9,E,A,V*7A

1560876001953,$GNGGA,164003.00,5420.852596,N,01839.432458,E,1,11,1.1,11.3,M,34.5,M,,*4A

1560876002937,$GPGSV,3,1,11,01,34,281,19,08,62,213,16,10,44,063,20,18,61,281,15,1*6F

1560876002938,$GPGSV,3,2,11,27,35,167,16,28,20,319,14,32,40,122,15,11,46,286,,1*69

1560876002938,$GPGSV,3,3,11,14,28,140,,20,16,063,,22,23,230,,1*5E

1560876002938,$GLGSV,2,1,06,87,48,313,26,71,73,099,15,78,15,317,,70,28,037,,1*7A

1560876002938,$GLGSV,2,2,06,86,65,122,,72,37,192,,1*79

1560876002938,$GAGSV,2,1,05,26,48,120,16,33,73,285,16,07,51,080,,12,21,295,,7*70

1560876002939,$GAGSV,2,2,05,24,15,303,,7*44

1560876002939,$PQGSV,1,1,0,0*43

1560876002940,$PQGSV,2,1,07,27,46,149,14,30,67,272,23,05,18,133,,06,29,046,,0*7F

1560876002940,$PQGSV,2,2,07,09,45,077,,16,33,050,,29,18,306,,0*49

1560876002943,$GNGSA,A,3,01,08,10,18,27,28,32,,,,,,1.4,1.1,0.9,1*32

1560876002943,$GNGSA,A,2,71,87,,,,,,,,,,,1.4,1.1,0.9,2*36

1560876002943,$GNGSA,A,2,01,26,,,,,,,,,,,1.4,1.1,0.9,3*3B

1560876002944,$GNVTG,,T,,M,0.0,N,0.0,K,A*3D

1560876002944,$GNRMC,164004.00,A,5420.852600,N,01839.432446,E,0.0,,180619,2.9,E,A,V*7E

1560876002944,$GNGGA,164004.00,5420.852600,N,01839.432446,E,1,11,1.1,11.3,M,34.5,M,,*4E

1560876003947,$GPGSV,3,1,11,01,34,281,19,08,62,213,16,10,44,063,20,18,61,281,20,1*69

1560876003947,$GPGSV,3,2,11,27,35,167,16,28,20,319,14,32,40,122,15,11,46,286,,1*69

1560876003951,$GPGSV,3,3,11,14,28,140,,20,16,063,,22,23,230,,1*5E

1560876003951,$GLGSV,2,1,06,87,48,313,26,71,73,099,18,78,15,317,,70,28,037,,1*77

1560876003951,$GLGSV,2,2,06,86,65,122,,72,37,192,,1*79

1560876003951,$GAGSV,2,1,05,26,48,120,16,33,73,285,16,07,51,080,,12,21,295,,7*70

1560876003951,$GAGSV,2,2,05,24,15,303,,7*44

1560876003952,$PQGSV,1,1,0,0*43

1560876003953,$PQGSV,2,1,07,27,46,149,14,30,67,272,22,05,18,133,,06,29,046,,0*7E

1560876003954,$PQGSV,2,2,07,09,45,077,,16,33,050,,29,18,306,,0*49

1560876003962,$GNGSA,A,3,08,18,27,28,32,,,,,,,,1.9,1.6,0.9,1*38

1560876003964,$GNGSA,A,2,71,87,,,,,,,,,,,1.9,1.6,0.9,2*3C

1560876003964,$GNGSA,A,2,01,26,,,,,,,,,,,1.9,1.6,0.9,3*31

1560876003965,$GNVTG,,T,,M,0.0,N,0.0,K,A*3D

1560876003965,$GNRMC,164005.00,A,5420.852602,N,01839.432440,E,0.0,,180619,2.9,E,A,V*7B

1560876003966,$GNGGA,164005.00,5420.852602,N,01839.432440,E,1,09,1.6,11.3,M,34.5,M,,*45

1560876004946,$GPGSV,3,1,11,01,34,281,19,08,62,213,17,10,44,063,20,18,61,281,20,1*68

1560876004946,$GPGSV,3,2,11,27,35,167,16,28,20,319,14,32,40,122,20,11,46,286,,1*6F

1560876004947,$GPGSV,3,3,11,14,28,140,,20,16,063,,22,23,230,,1*5E

1560876004948,$GLGSV,2,1,06,87,48,313,22,71,73,099,18,78,15,317,,70,28,037,,1*73

1560876004948,$GLGSV,2,2,06,86,65,122,,72,37,192,,1*79

1560876004948,$GAGSV,2,1,05,26,48,120,16,33,73,285,16,07,51,080,,12,21,295,,7*70

1560876004948,$GAGSV,2,2,05,24,15,303,,7*44

1560876004948,$PQGSV,1,1,0,0*43

1560876004948,$PQGSV,2,1,07,27,46,149,14,30,67,272,22,05,18,133,,06,29,046,,0*7E

1560876004949,$PQGSV,2,2,07,09,45,077,,16,33,050,,29,18,306,,0*49

1560876004952,$GNGSA,A,3,08,18,27,28,32,,,,,,,,1.9,1.6,0.9,1*38

1560876004953,$GNGSA,A,2,71,87,,,,,,,,,,,1.9,1.6,0.9,2*3C

1560876004953,$GNGSA,A,2,01,26,,,,,,,,,,,1.9,1.6,0.9,3*31

1560876004953,$GNVTG,,T,,M,0.0,N,0.0,K,A*3D

1560876004953,$GNRMC,164006.00,A,5420.852602,N,01839.432438,E,0.0,,180619,2.9,E,A,V*77

1560876004954,$GNGGA,164006.00,5420.852602,N,01839.432438,E,1,09,1.6,11.3,M,34.5,M,,*49

1560876005944,$GPGSV,3,1,11,01,34,281,12,08,62,213,17,10,44,063,20,18,61,281,18,1*68

1560876005944,$GPGSV,3,2,11,27,35,167,16,28,20,319,14,32,40,122,18,11,46,286,,1*64

1560876005945,$GPGSV,3,3,11,14,28,140,,20,16,063,,22,23,230,,1*5E

1560876005945,$GLGSV,2,1,06,87,48,313,25,71,73,099,19,78,15,317,,70,28,037,,1*75

1560876005945,$GLGSV,2,2,06,86,65,122,,72,37,192,,1*79

1560876005945,$GAGSV,2,1,05,07,51,080,16,26,48,120,16,33,73,285,16,12,21,295,,7*77

1560876005946,$GAGSV,2,2,05,24,15,303,,7*44

1560876005946,$PQGSV,1,1,0,0*43

1560876005946,$PQGSV,2,1,07,27,46,149,14,30,67,272,22,05,18,133,,06,29,046,,0*7E

1560876005946,$PQGSV,2,2,07,09,45,077,,16,33,050,,29,18,306,,0*49

1560876005953,$GNGSA,A,3,01,08,18,27,28,32,,,,,,,1.6,1.3,0.9,1*33

1560876005954,$GNGSA,A,2,71,87,,,,,,,,,,,1.6,1.3,0.9,2*36

1560876005954,$GNGSA,A,2,01,07,26,,,,,,,,,,1.6,1.3,0.9,3*3C

1560876005954,$GNVTG,,T,,M,0.0,N,0.0,K,A*3D

1560876005955,$GNRMC,164007.00,A,5420.852602,N,01839.432434,E,0.0,,180619,2.9,E,A,V*7A

1560876005956,$GNGGA,164007.00,5420.852602,N,01839.432434,E,1,11,1.3,11.3,M,34.5,M,,*48

1560876006941,$GPGSV,3,1,11,01,34,281,17,08,62,213,17,10,44,063,20,18,61,281,18,1*6D

1560876006942,$GPGSV,3,2,11,27,35,167,15,28,20,319,14,32,40,122,19,11,46,286,,1*66

1560876006942,$GPGSV,3,3,11,14,28,140,,20,16,063,,22,23,230,,1*5E

1560876006942,$GLGSV,2,1,06,87,48,313,25,71,73,099,18,78,15,317,,70,28,037,,1*74

1560876006943,$GLGSV,2,2,06,86,65,122,,72,37,192,,1*79

1560876006943,$GAGSV,2,1,05,07,51,080,16,26,48,120,16,33,73,285,16,12,21,295,,7*77

1560876006943,$GAGSV,2,2,05,24,15,303,,7*44

1560876006944,$PQGSV,1,1,0,0*43

1560876006944,$PQGSV,2,1,07,27,46,149,14,30,67,272,21,05,18,133,,06,29,046,,0*7D

1560876006944,$PQGSV,2,2,07,09,45,077,,16,33,050,,29,18,306,,0*49

1560876006948,$GNGSA,A,3,01,08,18,27,32,,,,,,,,1.8,1.5,0.9,1*31

1560876006948,$GNGSA,A,2,71,87,,,,,,,,,,,1.8,1.5,0.9,2*3E

1560876006948,$GNGSA,A,2,07,,,,,,,,,,,,1.8,1.5,0.9,3*31

1560876006949,$GNVTG,,T,,M,0.0,N,0.0,K,A*3D

1560876006949,$GNRMC,164008.00,A,5420.852602,N,01839.432433,E,0.0,,180619,2.9,E,A,V*72

1560876006949,$GNGGA,164008.00,5420.852602,N,01839.432433,E,1,08,1.5,11.3,M,34.5,M,,*4E

1560876007939,$GPGSV,3,1,11,01,34,281,17,08,62,213,17,10,44,063,20,18,61,281,18,1*6D

1560876007940,$GPGSV,3,2,11,27,35,167,15,28,20,319,14,32,40,122,19,11,46,286,,1*66

1560876007940,$GPGSV,3,3,11,14,28,140,,20,16,063,,22,23,230,,1*5E

1560876007940,$GLGSV,2,1,06,87,48,313,23,71,73,099,19,78,15,317,,70,28,037,,1*73

1560876007940,$GLGSV,2,2,06,86,65,122,,72,37,192,,1*79

1560876007940,$GAGSV,2,1,05,07,51,080,16,26,48,120,16,33,73,285,16,12,21,295,,7*77

1560876007940,$GAGSV,2,2,05,24,15,303,,7*44

1560876007940,$PQGSV,1,1,0,0*43

1560876007940,$PQGSV,2,1,07,27,46,149,14,30,67,272,19,05,18,133,,06,29,046,,0*76

1560876007941,$PQGSV,2,2,07,09,45,077,,16,33,050,,29,18,306,,0*49

1560876007944,$GNGSA,A,3,01,08,18,27,32,,,,,,,,1.8,1.5,0.9,1*31

1560876007944,$GNGSA,A,2,71,87,,,,,,,,,,,1.8,1.5,0.9,2*3E

1560876007944,$GNGSA,A,2,07,,,,,,,,,,,,1.8,1.5,0.9,3*31

1560876007944,$GNVTG,,T,,M,0.0,N,0.0,K,A*3D

1560876007945,$GNRMC,164009.00,A,5420.852630,N,01839.432298,E,0.0,,180619,2.9,E,A,V*75

1560876007945,$GNGGA,164009.00,5420.852630,N,01839.432298,E,1,08,1.5,11.3,M,34.5,M,,*49

1560876008938,$GPGSV,3,1,11,01,34,281,17,08,62,213,17,10,44,063,20,18,61,281,18,1*6D

1560876008938,$GPGSV,3,2,11,27,35,167,15,28,20,319,14,32,40,122,19,11,46,286,,1*66

1560876008938,$GPGSV,3,3,11,14,28,140,,20,16,063,,22,23,230,,1*5E

1560876008938,$GLGSV,2,1,06,87,48,313,24,71,73,099,19,78,15,317,,70,28,037,,1*74

1560876008939,$GLGSV,2,2,06,86,65,122,,72,37,192,,1*79

1560876008939,$GAGSV,2,1,05,07,51,080,16,26,48,120,16,33,73,285,16,12,21,295,,7*77

1560876008939,$GAGSV,2,2,05,24,15,303,,7*44

1560876008939,$PQGSV,1,1,0,0*43

1560876008939,$PQGSV,2,1,07,27,46,149,14,30,67,272,22,05,18,133,,06,29,046,,0*7E

1560876008939,$PQGSV,2,2,07,09,45,077,,16,33,050,,29,18,306,,0*49

1560876008943,$GNGSA,A,3,01,08,18,27,32,,,,,,,,1.8,1.5,0.9,1*31

1560876008944,$GNGSA,A,2,71,87,,,,,,,,,,,1.8,1.5,0.9,2*3E

1560876008944,$GNGSA,A,2,07,,,,,,,,,,,,1.8,1.5,0.9,3*31

1560876008944,$GNVTG,,T,,M,0.0,N,0.0,K,A*3D

1560876008945,$GNRMC,164010.00,A,5420.852645,N,01839.432230,E,0.0,,180619,2.9,E,A,V*7D

1560876008945,$GNGGA,164010.00,5420.852645,N,01839.432230,E,1,08,1.5,11.2,M,34.5,M,,*40

1560876009939,$GPGSV,3,1,11,01,34,281,17,08,62,213,17,10,44,063,08,18,61,281,17,1*68

1560876009939,$GPGSV,3,2,11,27,35,167,15,28,20,319,14,32,40,122,20,11,46,286,,1*6C

1560876009940,$GPGSV,3,3,11,14,28,140,,20,16,063,,22,23,230,,1*5E

1560876009940,$GLGSV,2,1,06,87,48,313,25,71,73,099,18,78,15,317,,70,28,037,,1*74

1560876009940,$GLGSV,2,2,06,86,65,122,,72,37,192,,1*79

1560876009940,$GAGSV,2,1,05,07,51,080,16,26,48,120,16,33,73,285,16,12,21,295,,7*77

1560876009941,$GAGSV,2,2,05,24,15,303,,7*44

1560876009941,$PQGSV,1,1,0,0*43

1560876009945,$PQGSV,2,1,07,27,46,149,14,30,67,272,22,05,18,133,,06,29,046,,0*7E

1560876009945,$PQGSV,2,2,07,09,45,077,,16,33,050,,29,18,306,,0*49

1560876009949,$GNGSA,A,3,01,08,10,18,27,32,,,,,,,1.5,1.2,0.9,1*3A

1560876009949,$GNGSA,A,2,71,87,,,,,,,,,,,1.5,1.2,0.9,2*34

1560876009949,$GNGSA,A,2,07,,,,,,,,,,,,1.5,1.2,0.9,3*3B

1560876009949,$GNVTG,,T,,M,0.0,N,0.0,K,A*3D

1560876009949,$GNRMC,164011.00,A,5420.852652,N,01839.432197,E,0.0,,180619,2.9,E,A,V*74

1560876009950,$GNGGA,164011.00,5420.852652,N,01839.432197,E,1,09,1.2,11.2,M,34.5,M,,*4F

1560876010938,$GPGSV,3,1,11,01,34,281,17,08,62,213,17,10,44,063,08,18,61,281,19,1*66

1560876010938,$GPGSV,3,2,11,27,35,167,15,28,20,319,14,32,40,122,20,11,46,286,,1*6C

1560876010938,$GPGSV,3,3,11,14,28,140,,20,16,063,,22,23,230,,1*5E

1560876010938,$GLGSV,2,1,06,87,48,313,24,71,73,099,19,78,15,317,,70,28,037,,1*74

1560876010938,$GLGSV,2,2,06,86,65,122,,72,37,192,,1*79

1560876010939,$GAGSV,2,1,05,07,51,080,16,26,48,120,16,33,73,285,16,12,21,295,,7*77

1560876010939,$GAGSV,2,2,05,24,15,303,,7*44

1560876010939,$PQGSV,1,1,0,0*43

1560876010939,$PQGSV,2,1,07,27,46,149,14,30,67,272,22,05,18,133,,06,29,046,,0*7E

1560876010939,$PQGSV,2,2,07,09,45,077,,16,33,050,,29,18,306,,0*49

1560876010942,$GNGSA,A,3,01,10,18,27,32,,,,,,,,1.6,1.3,1.0,1*38

1560876010943,$GNGSA,A,2,71,87,,,,,,,,,,,1.6,1.3,1.0,2*3E

1560876010943,$GNGSA,A,2,07,,,,,,,,,,,,1.6,1.3,1.0,3*31

1560876010943,$GNVTG,,T,,M,0.0,N,0.0,K,A*3D

1560876010943,$GNRMC,164012.00,A,5420.852656,N,01839.432181,E,0.0,,180619,2.9,E,A,V*74

1560876010943,$GNGGA,164012.00,5420.852656,N,01839.432181,E,1,08,1.3,11.2,M,34.5,M,,*4F

1560876011938,$GPGSV,3,1,11,01,34,281,14,08,62,213,17,10,44,063,08,18,61,281,21,1*6E

1560876011938,$GPGSV,3,2,11,27,35,167,14,28,20,319,14,32,40,122,21,11,46,286,,1*6C

1560876011938,$GPGSV,3,3,11,14,28,140,,20,16,063,,22,23,230,,1*5E

1560876011938,$GLGSV,2,1,06,87,48,313,25,71,73,099,18,78,15,317,,70,28,037,,1*74

1560876011939,$GLGSV,2,2,06,86,65,122,,72,37,192,,1*79

1560876011939,$GAGSV,2,1,05,07,51,080,16,26,48,120,16,33,73,285,16,12,21,295,,7*77

1560876011939,$GAGSV,2,2,05,24,15,303,,7*44

1560876011939,$PQGSV,1,1,0,0*43

1560876011940,$PQGSV,2,1,07,27,46,149,14,30,67,272,22,05,18,133,,06,29,046,,0*7E

1560876011940,$PQGSV,2,2,07,09,45,077,,16,33,050,,29,18,306,,0*49

1560876011943,$GNGSA,A,3,01,10,18,27,32,,,,,,,,1.6,1.3,1.0,1*38

1560876011943,$GNGSA,A,2,71,87,,,,,,,,,,,1.6,1.3,1.0,2*3E

1560876011943,$GNVTG,,T,,M,0.0,N,0.0,K,A*3D

1560876011944,$GNRMC,164013.00,A,5420.852657,N,01839.432173,E,0.0,,180619,2.9,E,A,V*79

1560876011944,$GNGGA,164013.00,5420.852657,N,01839.432173,E,1,07,1.3,11.2,M,34.5,M,,*4D

1560876012944,$GPGSV,3,1,11,01,34,281,16,08,62,213,17,10,44,063,08,18,61,281,19,1*67

1560876012944,$GPGSV,3,2,11,27,35,167,17,28,20,319,14,32,40,122,20,11,46,286,,1*6E

1560876012944,$GPGSV,3,3,11,14,28,140,,20,16,063,,22,23,230,,1*5E

1560876012945,$GLGSV,2,1,06,87,48,313,25,71,73,099,19,78,15,317,,70,28,037,,1*75

1560876012945,$GLGSV,2,2,06,86,65,122,,72,37,192,,1*79

1560876012945,$GAGSV,2,1,05,07,51,080,16,26,48,120,16,33,73,285,16,12,21,295,,7*77

1560876012945,$GAGSV,2,2,05,24,15,303,,7*44

1560876012946,$PQGSV,1,1,0,0*43

1560876012946,$PQGSV,2,1,07,27,46,149,14,30,67,272,22,05,18,133,,06,29,046,,0*7E

1560876012946,$PQGSV,2,2,07,09,45,077,,16,33,050,,29,18,306,,0*49

1560876012953,$GNGSA,A,3,01,10,18,27,32,,,,,,,,1.6,1.3,1.0,1*38

1560876012953,$GNGSA,A,2,71,87,,,,,,,,,,,1.6,1.3,1.0,2*3E

1560876012953,$GNVTG,,T,,M,0.0,N,0.0,K,A*3D

1560876012953,$GNRMC,164014.00,A,5420.852657,N,01839.432170,E,0.0,,180619,2.9,E,A,V*7D

1560876012954,$GNGGA,164014.00,5420.852657,N,01839.432170,E,1,07,1.3,11.2,M,34.5,M,,*49

1560876013942,$GPGSV,3,1,11,01,34,281,16,08,62,213,17,10,44,063,08,18,61,281,19,1*67

1560876013942,$GPGSV,3,2,11,27,35,167,17,28,20,319,14,32,40,122,20,11,46,286,,1*6E

1560876013943,$GPGSV,3,3,11,14,28,140,,20,16,063,,22,23,230,,1*5E

1560876013943,$GLGSV,2,1,06,87,48,313,24,71,73,099,19,78,15,317,,70,28,037,,1*74

1560876013943,$GLGSV,2,2,06,86,65,122,,72,37,192,,1*79

1560876013943,$GAGSV,2,1,05,07,51,080,16,26,48,120,16,33,73,285,16,12,21,295,,7*77

1560876013943,$GAGSV,2,2,05,24,15,303,,7*44

1560876013943,$PQGSV,1,1,0,0*43

1560876013943,$PQGSV,2,1,07,27,46,149,14,30,67,272,21,05,18,133,,06,29,046,,0*7D

1560876013944,$PQGSV,2,2,07,09,45,077,,16,33,050,,29,18,306,,0*49

1560876013951,$GNGSA,A,3,01,10,18,27,32,,,,,,,,1.6,1.3,1.0,1*38

1560876013951,$GNGSA,A,2,71,87,,,,,,,,,,,1.6,1.3,1.0,2*3E

1560876013951,$GNVTG,,T,,M,0.0,N,0.0,K,A*3D

1560876013952,$GNRMC,164015.00,A,5420.852657,N,01839.432170,E,0.0,,180619,2.9,E,A,V*7C

1560876013952,$GNGGA,164015.00,5420.852657,N,01839.432170,E,1,07,1.3,11.2,M,34.5,M,,*48

1560876014942,$GPGSV,3,1,11,01,34,281,16,08,62,213,17,10,44,063,08,18,61,281,19,1*67

1560876014944,$GPGSV,3,2,11,27,35,167,17,28,20,319,14,32,40,122,19,11,46,286,,1*64

1560876014944,$GPGSV,3,3,11,14,28,140,,20,16,063,,22,23,230,,1*5E

1560876014944,$GLGSV,2,1,06,87,48,313,25,71,73,099,18,78,15,317,,70,28,037,,1*74

1560876014945,$GLGSV,2,2,06,86,65,122,,72,37,192,,1*79

1560876014945,$GAGSV,2,1,05,07,51,080,16,26,48,120,16,33,73,285,16,12,21,295,,7*77

1560876014945,$GAGSV,2,2,05,24,15,303,,7*44

1560876014945,$PQGSV,1,1,0,0*43

1560876014945,$PQGSV,2,1,07,27,46,149,14,30,67,272,21,05,18,133,,06,29,046,,0*7D

1560876014945,$PQGSV,2,2,07,09,45,077,,16,33,050,,29,18,306,,0*49

1560876014953,$GNGSA,A,3,01,10,18,27,32,,,,,,,,1.6,1.3,1.0,1*38

1560876014954,$GNGSA,A,2,71,87,,,,,,,,,,,1.6,1.3,1.0,2*3E

1560876014955,$GNVTG,,T,,M,0.0,N,0.0,K,A*3D

1560876014955,$GNRMC,164016.00,A,5420.852656,N,01839.432170,E,0.0,,180619,2.9,E,A,V*7E

1560876014955,$GNGGA,164016.00,5420.852656,N,01839.432170,E,1,07,1.3,11.2,M,34.5,M,,*4A

1560876015938,$GPGSV,3,1,11,01,34,281,16,08,62,213,17,10,44,063,08,18,61,281,18,1*66

1560876015938,$GPGSV,3,2,11,27,35,167,15,28,20,319,14,32,40,122,20,11,46,286,,1*6C

1560876015939,$GPGSV,3,3,11,14,28,140,,20,16,063,,22,23,230,,1*5E

1560876015939,$GLGSV,2,1,06,87,48,313,24,71,73,099,19,78,15,317,,70,28,037,,1*74

1560876015939,$GLGSV,2,2,06,86,65,122,,72,37,192,,1*79

1560876015939,$GAGSV,2,1,05,07,51,080,16,26,48,120,16,33,73,285,16,12,21,295,,7*77

1560876015939,$GAGSV,2,2,05,24,15,303,,7*44

1560876015939,$PQGSV,1,1,0,0*43

1560876015939,$PQGSV,2,1,07,06,29,046,17,27,46,149,14,30,67,272,21,05,18,133,,0*7B

1560876015940,$PQGSV,2,2,07,09,45,077,,16,33,050,,29,18,306,,0*49

1560876015945,$GNGSA,A,3,01,18,27,32,,,,,,,,,2.3,2.1,1.0,1*3E

1560876015945,$GNGSA,A,2,71,87,,,,,,,,,,,2.3,2.1,1.0,2*39

1560876015945,$GNVTG,,T,,M,0.0,N,0.0,K,A*3D

1560876015946,$GNRMC,164017.00,A,5420.852656,N,01839.432172,E,0.0,,180619,2.9,E,A,V*7D

1560876015946,$GNGGA,164017.00,5420.852656,N,01839.432172,E,1,06,2.1,11.2,M,34.5,M,,*49

1560876016939,$GPGSV,3,1,11,01,34,281,16,08,62,213,08,10,44,063,08,18,61,281,18,1*68

1560876016939,$GPGSV,3,2,11,27,35,167,15,28,20,319,14,32,40,122,20,11,46,286,,1*6C

1560876016939,$GPGSV,3,3,11,14,28,140,,20,16,063,,22,23,230,,1*5E

1560876016939,$GLGSV,2,1,06,87,48,313,24,71,73,099,19,78,15,317,,70,28,037,,1*74

1560876016940,$GLGSV,2,2,06,86,65,122,,72,37,192,,1*79

1560876016940,$GAGSV,2,1,05,07,51,080,16,26,48,120,16,33,73,285,16,12,21,295,,7*77

1560876016940,$GAGSV,2,2,05,24,15,303,,7*44

1560876016940,$PQGSV,1,1,0,0*43

1560876016940,$PQGSV,2,1,07,06,29,046,17,27,46,149,14,30,67,272,21,05,18,133,,0*7B

1560876016941,$PQGSV,2,2,07,09,45,077,,16,33,050,,29,18,306,,0*49

1560876016944,$GNGSA,A,3,01,08,18,27,32,,,,,,,,2.1,1.9,0.9,1*37

1560876016945,$GNGSA,A,2,71,87,,,,,,,,,,,2.1,1.9,0.9,2*38

1560876016945,$GNVTG,,T,,M,0.0,N,0.0,K,A*3D

1560876016945,$GNRMC,164018.00,A,5420.852656,N,01839.432173,E,0.0,,180619,2.9,E,A,V*73

1560876016945,$GNGGA,164018.00,5420.852656,N,01839.432173,E,1,07,1.9,11.2,M,34.5,M,,*4D

1560876017943,$GPGSV,3,1,11,01,34,281,16,08,62,213,08,10,44,063,08,18,61,281,16,1*66

1560876017944,$GPGSV,3,2,11,27,35,167,15,28,20,319,14,32,40,122,19,11,46,286,,1*66

1560876017944,$GPGSV,3,3,11,14,28,140,,20,16,063,,22,23,230,,1*5E

1560876017945,$GLGSV,2,1,06,87,48,313,24,71,73,099,16,78,15,317,,70,28,037,,1*7B

1560876017945,$GLGSV,2,2,06,86,65,122,,72,37,192,,1*79

1560876017945,$GAGSV,2,1,05,07,51,080,11,26,48,120,16,33,73,285,16,12,21,295,,7*70

1560876017946,$GAGSV,2,2,05,24,15,303,,7*44

1560876017946,$PQGSV,1,1,0,0*43

1560876017946,$PQGSV,2,1,07,06,29,046,17,27,46,149,14,30,67,272,20,05,18,133,,0*7A

1560876017947,$PQGSV,2,2,07,09,45,077,,16,33,050,,29,18,306,,0*49

1560876017957,$GNGSA,A,3,01,08,18,27,32,,,,,,,,1.8,1.5,0.9,1*31

1560876017958,$GNGSA,A,2,71,87,,,,,,,,,,,1.8,1.5,0.9,2*3E

1560876017958,$GNGSA,A,2,07,,,,,,,,,,,,1.8,1.5,0.9,3*31

1560876017958,$GNVTG,,T,,M,0.0,N,0.0,K,A*3D

1560876017958,$GNRMC,164019.00,A,5420.852656,N,01839.432172,E,0.0,,180619,2.9,E,A,V*73

1560876017958,$GNGGA,164019.00,5420.852656,N,01839.432172,E,1,08,1.5,11.3,M,34.5,M,,*4F

1560876018944,$GPGSV,3,1,11,01,34,281,12,08,62,213,08,10,44,063,08,18,61,281,16,1*62

1560876018944,$GPGSV,3,2,11,27,35,167,16,28,20,319,14,32,40,122,18,11,46,286,,1*64

1560876018945,$GPGSV,3,3,11,14,28,140,,20,16,063,,22,23,230,,1*5E

1560876018945,$GLGSV,2,1,06,87,48,313,23,71,73,099,16,78,15,317,,70,28,037,,1*7C

1560876018945,$GLGSV,2,2,06,86,65,122,,72,37,192,,1*79

1560876018946,$GAGSV,2,1,05,07,51,080,11,26,48,120,16,33,73,285,16,12,21,295,,7*70

1560876018947,$GAGSV,2,2,05,24,15,303,,7*44

1560876018948,$PQGSV,1,1,0,0*43

1560876018948,$PQGSV,2,1,07,06,29,046,17,27,46,149,14,30,67,272,20,05,18,133,,0*7A

1560876018948,$PQGSV,2,2,07,09,45,077,,16,33,050,,29,18,306,,0*49

1560876018952,$GNGSA,A,3,01,08,18,27,32,,,,,,,,1.8,1.5,0.9,1*31

1560876018953,$GNGSA,A,2,71,87,,,,,,,,,,,1.8,1.5,0.9,2*3E

1560876018953,$GNGSA,A,2,07,,,,,,,,,,,,1.8,1.5,0.9,3*31

1560876018953,$GNVTG,,T,,M,0.0,N,0.0,K,A*3D

1560876018953,$GNRMC,164020.00,A,5420.852703,N,01839.432194,E,0.0,,180619,2.9,E,A,V*70

1560876018954,$GNGGA,164020.00,5420.852703,N,01839.432194,E,1,08,1.5,11.5,M,34.5,M,,*4A

1560876019943,$GPGSV,3,1,11,01,34,281,12,08,62,213,08,10,44,063,08,18,61,281,17,1*63

1560876019944,$GPGSV,3,2,11,27,35,167,16,28,20,319,14,32,40,122,20,11,46,286,,1*6F

1560876019944,$GPGSV,3,3,11,14,28,140,,20,16,063,,22,23,230,,1*5E

1560876019945,$GLGSV,2,1,06,87,48,313,24,71,73,099,16,78,15,317,,70,28,037,,1*7B

1560876019945,$GLGSV,2,2,06,86,65,122,,72,37,192,,1*79

1560876019945,$GAGSV,2,1,05,07,51,080,11,26,48,120,16,33,73,285,16,12,21,295,,7*70

1560876019945,$GAGSV,2,2,05,24,15,303,,7*44

1560876019946,$PQGSV,1,1,0,0*43

1560876019946,$PQGSV,2,1,07,06,29,046,17,27,46,149,14,30,67,272,19,05,18,133,,0*70

1560876019946,$PQGSV,2,2,07,09,45,077,,16,33,050,,29,18,306,,0*49

1560876019953,$GNGSA,A,3,01,08,18,27,32,,,,,,,,1.8,1.5,0.9,1*31

1560876019954,$GNGSA,A,2,71,87,,,,,,,,,,,1.8,1.5,0.9,2*3E

1560876019954,$GNGSA,A,2,07,,,,,,,,,,,,1.8,1.5,0.9,3*31

1560876019955,$GNVTG,,T,,M,0.0,N,0.0,K,A*3D

1560876019955,$GNRMC,164021.00,A,5420.852726,N,01839.432206,E,0.0,,180619,2.9,E,A,V*7E

1560876019955,$GNGGA,164021.00,5420.852726,N,01839.432206,E,1,08,1.5,11.5,M,34.5,M,,*44

1560876020942,$GPGSV,3,1,11,01,34,281,15,08,62,213,08,10,44,063,08,18,61,281,18,1*6B

1560876020943,$GPGSV,3,2,11,27,35,167,16,28,20,319,14,32,40,122,20,11,46,286,,1*6F

1560876020943,$GPGSV,3,3,11,14,28,140,,20,16,063,,22,23,230,,1*5E

1560876020943,$GLGSV,2,1,06,87,48,313,24,71,73,099,15,78,15,317,,70,28,037,,1*78

1560876020943,$GLGSV,2,2,06,86,65,122,,72,37,192,,1*79

1560876020944,$GAGSV,2,1,05,07,51,080,11,26,48,120,16,33,73,285,16,12,21,295,,7*70

1560876020944,$GAGSV,2,2,05,24,15,303,,7*44

1560876020944,$PQGSV,1,1,0,0*43

1560876020945,$PQGSV,2,1,07,06,29,046,17,27,46,149,14,30,67,272,21,05,18,133,,0*7B

1560876020946,$PQGSV,2,2,07,09,45,077,,16,33,050,,29,18,306,,0*49

1560876020953,$GNGSA,A,3,01,08,18,27,32,,,,,,,,1.8,1.5,0.9,1*31

1560876020954,$GNGSA,A,2,71,87,,,,,,,,,,,1.8,1.5,0.9,2*3E

1560876020954,$GNGSA,A,2,07,,,,,,,,,,,,1.8,1.5,0.9,3*31

1560876020954,$GNVTG,,T,,M,0.0,N,0.0,K,A*3D

1560876020955,$GNRMC,164022.00,A,5420.852738,N,01839.432212,E,0.0,,180619,2.9,E,A,V*77

1560876020955,$GNGGA,164022.00,5420.852738,N,01839.432212,E,1,08,1.5,11.5,M,34.5,M,,*4D

1560876021938,$GPGSV,3,1,10,01,34,281,16,08,62,213,08,10,44,063,08,18,61,281,18,1*69

1560876021938,$GPGSV,3,2,10,27,35,167,16,32,40,122,20,11,46,286,,14,28,140,,1*62

1560876021939,$GPGSV,3,3,10,20,16,063,,22,23,230,,1*65

1560876021939,$GLGSV,2,1,06,87,48,313,25,71,73,099,15,78,15,317,,70,28,037,,1*79

1560876021939,$GLGSV,2,2,06,86,65,122,,72,37,192,,1*79

1560876021939,$GAGSV,1,1,03,07,51,080,16,12,21,295,,24,15,303,,7*40

1560876021939,$PQGSV,1,1,0,0*43

1560876021939,$PQGSV,2,1,06,06,29,046,17,30,67,272,22,05,18,133,,09,45,077,,0*7F

1560876021939,$PQGSV,2,2,06,16,33,050,,29,18,306,,0*70

1560876021942,$GNGSA,A,3,01,08,18,27,32,,,,,,,,1.8,1.5,0.9,1*31

1560876021943,$GNGSA,A,2,71,87,,,,,,,,,,,1.8,1.5,0.9,2*3E

1560876021943,$GNGSA,A,2,07,,,,,,,,,,,,1.8,1.5,0.9,3*31

1560876021943,$GNVTG,,T,,M,0.0,N,0.0,K,A*3D

1560876021943,$GNRMC,164023.00,A,5420.852742,N,01839.432206,E,0.0,,180619,2.9,E,A,V*7E

1560876021943,$GNGGA,164023.00,5420.852742,N,01839.432206,E,1,08,1.5,11.5,M,34.5,M,,*44

1560876022943,$GPGSV,3,1,11,01,34,281,16,08,62,213,08,10,44,063,08,18,61,281,18,1*68

1560876022944,$GPGSV,3,2,11,27,35,167,16,32,40,122,19,11,46,286,,14,28,140,,1*69

1560876022944,$GPGSV,3,3,11,20,16,063,,22,23,230,,28,20,319,,1*57

1560876022944,$GLGSV,2,1,06,87,48,313,25,71,73,099,15,78,15,317,,70,28,037,,1*79

1560876022945,$GLGSV,2,2,06,86,65,122,,72,37,192,,1*79

1560876022945,$GAGSV,1,1,04,07,51,080,16,12,21,295,,24,15,303,,26,48,120,,7*7C

1560876022945,$PQGSV,1,1,0,0*43

1560876022946,$PQGSV,2,1,07,06,29,046,17,30,67,272,20,05,18,133,,09,45,077,,0*7C

1560876022946,$PQGSV,2,2,07,16,33,050,,27,46,149,,29,18,306,,0*4A

1560876022953,$GNGSA,A,3,01,18,27,32,,,,,,,,,1.9,1.7,1.0,1*32

1560876022954,$GNGSA,A,2,71,87,,,,,,,,,,,1.9,1.7,1.0,2*35

1560876022954,$GNGSA,A,2,07,,,,,,,,,,,,1.9,1.7,1.0,3*3A

1560876022955,$GNVTG,,T,,M,0.0,N,0.0,K,A*3D

1560876022955,$GNRMC,164024.00,A,5420.852743,N,01839.432203,E,0.0,,180619,2.9,E,A,V*7D

1560876022955,$GNGGA,164024.00,5420.852743,N,01839.432203,E,1,07,1.7,11.4,M,34.5,M,,*4B

1560876023942,$GPGSV,3,1,11,01,34,281,16,08,62,213,12,10,44,063,08,18,61,281,18,1*63

1560876023942,$GPGSV,3,2,11,27,35,167,17,32,40,122,19,11,46,286,,14,28,140,,1*68

1560876023942,$GPGSV,3,3,11,20,16,063,,22,23,230,,28,20,319,,1*57

1560876023943,$GLGSV,2,1,06,87,48,313,25,71,73,099,15,78,15,317,,70,28,037,,1*79

1560876023943,$GLGSV,2,2,06,86,65,122,,72,37,192,,1*79

1560876023943,$GAGSV,1,1,04,07,51,080,16,12,21,295,,24,15,303,,26,48,120,,7*7C

1560876023944,$PQGSV,1,1,0,0*43

1560876023944,$PQGSV,2,1,07,06,29,046,13,30,67,272,19,05,18,133,,09,45,077,,0*72

1560876023944,$PQGSV,2,2,07,16,33,050,,27,46,149,,29,18,306,,0*4A

1560876023950,$GNGSA,A,3,01,08,18,27,32,,,,,,,,1.8,1.5,0.9,1*31

1560876023950,$GNGSA,A,2,71,87,,,,,,,,,,,1.8,1.5,0.9,2*3E

1560876023950,$GNGSA,A,2,07,,,,,,,,,,,,1.8,1.5,0.9,3*31

1560876023951,$GNVTG,,T,,M,0.0,N,0.0,K,A*3D

1560876023951,$GNRMC,164025.00,A,5420.852767,N,01839.432072,E,0.0,,180619,2.9,E,A,V*7E

1560876023951,$GNGGA,164025.00,5420.852767,N,01839.432072,E,1,08,1.5,11.4,M,34.5,M,,*45

1560876024944,$GPGSV,3,1,11,01,34,281,16,08,62,213,23,10,44,063,08,11,46,286,13,1*61

1560876024945,$GPGSV,3,2,11,18,61,281,15,27,35,167,17,32,40,122,17,14,28,140,,1*69

1560876024946,$GPGSV,3,3,11,20,16,063,,22,23,230,,28,20,319,,1*57

1560876024946,$GLGSV,2,1,06,87,48,313,23,71,73,099,15,78,15,317,,70,28,037,,1*7F

1560876024946,$GLGSV,2,2,06,86,65,122,,72,37,192,,1*79

1560876024946,$GAGSV,1,1,04,07,51,080,16,12,21,295,,24,15,303,,26,48,120,,7*7C

1560876024946,$PQGSV,1,1,0,0*43

1560876024946,$PQGSV,2,1,07,06,29,046,13,30,67,272,18,05,18,133,,09,45,077,,0*73

1560876024946,$PQGSV,2,2,07,16,33,050,,27,46,149,,29,18,306,,0*4A

1560876024951,$GNGSA,A,3,01,08,11,18,27,32,,,,,,,1.8,1.5,0.9,1*31

1560876024951,$GNGSA,A,2,71,87,,,,,,,,,,,1.8,1.5,0.9,2*3E

1560876024951,$GNGSA,A,2,07,,,,,,,,,,,,1.8,1.5,0.9,3*31

1560876024952,$GNVTG,,T,,M,0.0,N,0.0,K,A*3D

1560876024952,$GNRMC,164026.00,A,5420.852779,N,01839.432009,E,0.0,,180619,2.9,E,A,V*7E

1560876024953,$GNGGA,164026.00,5420.852779,N,01839.432009,E,1,09,1.5,11.4,M,34.5,M,,*44

1560876025942,$GPGSV,3,1,11,01,34,281,14,08,62,213,24,10,44,063,08,11,46,286,18,1*6F

1560876025943,$GPGSV,3,2,11,18,61,281,15,27,35,167,16,32,40,122,17,14,28,140,,1*68

1560876025943,$GPGSV,3,3,11,20,16,063,,22,23,230,,28,20,319,,1*57

1560876025943,$GLGSV,2,1,06,87,48,313,23,71,73,099,15,78,15,317,,70,28,037,,1*7F

1560876025943,$GLGSV,2,2,06,86,65,122,,72,37,192,,1*79

1560876025944,$GAGSV,1,1,04,07,51,080,16,12,21,295,,24,15,303,,26,48,120,,7*7C

1560876025944,$PQGSV,1,1,0,0*43

1560876025944,$PQGSV,2,1,07,06,29,046,13,30,67,272,19,05,18,133,,09,45,077,,0*72

1560876025945,$PQGSV,2,2,07,16,33,050,,27,46,149,,29,18,306,,0*4A

1560876025952,$GNGSA,A,3,01,08,11,18,27,32,,,,,,,1.5,1.2,0.9,1*3B

1560876025952,$GNGSA,A,2,71,87,,,,,,,,,,,1.5,1.2,0.9,2*34

1560876025953,$GNGSA,A,2,07,,,,,,,,,,,,1.5,1.2,0.9,3*3B

1560876025953,$PQGSA,A,2,06,,,,,,,,,,,,1.5,1.2,0.9,4*35

1560876025953,$GNVTG,,T,,M,0.0,N,0.0,K,A*3D

1560876025953,$GNRMC,164027.00,A,5420.852786,N,01839.431977,E,0.0,,180619,2.9,E,A,V*7C

1560876025954,$GNGGA,164027.00,5420.852786,N,01839.431977,E,1,10,1.2,11.4,M,34.5,M,,*49

1560876026943,$GPGSV,3,1,11,01,34,281,14,08,62,213,23,10,44,063,08,11,46,286,18,1*68

1560876026944,$GPGSV,3,2,11,18,61,281,17,27,35,167,16,32,40,122,17,14,28,140,,1*6A

1560876026944,$GPGSV,3,3,11,20,16,063,,22,23,230,,28,20,319,,1*57

1560876026944,$GLGSV,2,1,06,87,48,313,23,71,73,099,17,78,15,317,,70,28,037,,1*7D

1560876026944,$GLGSV,2,2,06,86,65,122,,72,37,192,,1*79

1560876026944,$GAGSV,1,1,04,07,51,080,16,12,21,295,,24,15,303,,26,48,120,,7*7C

1560876026944,$PQGSV,1,1,0,0*43

1560876026945,$PQGSV,2,1,07,06,29,046,13,30,67,272,19,05,18,133,,09,45,077,,0*72

1560876026945,$PQGSV,2,2,07,16,33,050,,27,46,149,,29,18,306,,0*4A

1560876026949,$GNGSA,A,3,01,08,11,18,27,32,,,,,,,1.5,1.2,0.9,1*3B

1560876026949,$GNGSA,A,2,71,87,,,,,,,,,,,1.5,1.2,0.9,2*34

1560876026950,$GNGSA,A,2,07,,,,,,,,,,,,1.5,1.2,0.9,3*3B

1560876026950,$PQGSA,A,2,06,,,,,,,,,,,,1.5,1.2,0.9,4*35

1560876026950,$GNVTG,,T,,M,0.0,N,0.0,K,A*3D

1560876026950,$GNRMC,164028.00,A,5420.852789,N,01839.431959,E,0.0,,180619,2.9,E,A,V*70

1560876026950,$GNGGA,164028.00,5420.852789,N,01839.431959,E,1,10,1.2,11.4,M,34.5,M,,*45

