1570187315892,$GPGSV,4,1,13,08,14,187,17,14,53,082,31,17,26,314,12,19,11,326,15,1*61

1570187315893,$GPGSV,4,2,13,31,14,108,33,32,35,054,24,01,82,226,,03,45,253,,1*65

1570187315893,$GPGSV,4,3,13,11,61,199,,18,61,143,,22,69,250,,23,07,202,,1*61

1570187315893,$GPGSV,4,4,13,28,08,277,,1*56

1570187315894,$GLGSV,1,1,04,76,15,007,26,67,23,047,29,82,02,154,,69,42,229,,1*7A

1570187315894,$GAGSV,1,1,02,05,34,056,23,31,07,018,,7*7D

1570187315895,$PQGSV,1,1,0,0*43

1570187315895,$PQGSV,3,1,09,06,19,043,24,09,42,059,19,16,26,046,28,21,42,066,23,0*73

1570187315895,$PQGSV,3,2,09,02,04,109,,05,18,133,,11,43,187,,14,50,232,,0*72

1570187315896,$PQGSV,3,3,09,28,35,303,,0*46

1570187315901,$GNGSA,A,3,08,14,17,31,32,,,,,,,,1.4,1.0,0.9,1*34

1570187315902,$GNGSA,A,2,67,76,,,,,,,,,,,1.4,1.0,0.9,2*3E

1570187315903,$GNGSA,A,2,05,,,,,,,,,,,,1.4,1.0,0.9,3*3A

1570187315903,$GNVTG,,T,,M,0.0,N,0.0,K,A*3D

1570187315904,$GNRMC,110836.00,A,5422.511429,N,01836.243937,E,0.0,,041019,2.9,E,A,V*7B

1570187315904,$GNGGA,110836.00,5422.511429,N,01836.243937,E,1,08,1.0,27.7,M,34.5,M,,*49

1570187316890,$GPGSV,4,1,13,08,14,187,17,14,53,082,31,17,26,314,12,19,11,326,15,1*61

1570187316891,$GPGSV,4,2,13,31,14,108,31,32,35,054,16,01,82,226,,03,45,253,,1*66

1570187316891,$GPGSV,4,3,13,11,61,199,,18,61,143,,22,69,250,,23,07,202,,1*61

1570187316891,$GPGSV,4,4,13,28,08,277,,1*56

1570187316892,$GLGSV,1,1,04,76,15,007,27,67,23,047,31,82,02,154,,69,42,229,,1*72

1570187316892,$GAGSV,1,1,02,05,34,056,22,31,07,018,,7*7C

1570187316893,$PQGSV,1,1,0,0*43

1570187316893,$PQGSV,3,1,09,06,19,043,25,09,42,059,19,16,26,046,30,21,42,066,20,0*78

1570187316894,$PQGSV,3,2,09,02,04,109,,05,18,133,,11,43,187,,14,50,232,,0*72

1570187316894,$PQGSV,3,3,09,28,35,303,,0*46

1570187316900,$GNGSA,A,3,08,14,17,31,32,,,,,,,,1.4,1.0,0.9,1*34

1570187316900,$GNGSA,A,2,67,76,,,,,,,,,,,1.4,1.0,0.9,2*3E

1570187316900,$GNGSA,A,2,05,,,,,,,,,,,,1.4,1.0,0.9,3*3A

1570187316900,$GNVTG,,T,,M,0.0,N,0.0,K,A*3D

1570187316900,$GNRMC,110837.00,A,5422.511483,N,01836.244176,E,0.0,,041019,2.9,E,A,V*70

1570187316901,$GNGGA,110837.00,5422.511483,N,01836.244176,E,1,08,1.0,27.5,M,34.5,M,,*40

1570187317887,$GPGSV,4,1,13,08,14,187,16,11,61,199,15,14,53,082,32,17,26,314,12,1*6A

1570187317888,$GPGSV,4,2,13,19,11,326,15,31,14,108,32,32,35,054,16,01,82,226,,1*68

1570187317888,$GPGSV,4,3,13,03,45,253,,18,61,143,,22,69,250,,23,07,202,,1*61

1570187317888,$GPGSV,4,4,13,28,08,277,,1*56

1570187317888,$GLGSV,1,1,04,76,15,007,28,67,23,047,31,82,02,154,,69,42,229,,1*7D

1570187317889,$GAGSV,1,1,02,05,34,056,23,31,07,018,,7*7D

1570187317889,$PQGSV,1,1,0,0*43

1570187317889,$PQGSV,3,1,09,02,04,109,22,06,19,043,26,09,42,059,14,16,26,046,30,0*7F

1570187317889,$PQGSV,3,2,09,21,42,066,25,05,18,133,,11,43,187,,14,50,232,,0*7E

1570187317889,$PQGSV,3,3,09,28,35,303,,0*46

1570187317905,$GNGSA,A,3,08,11,14,17,31,32,,,,,,,1.3,0.9,0.8,1*3A

1570187317905,$GNGSA,A,2,67,76,,,,,,,,,,,1.3,0.9,0.8,2*30

1570187317906,$GNGSA,A,2,05,,,,,,,,,,,,1.3,0.9,0.8,3*34

1570187317906,$GNVTG,,T,,M,0.0,N,0.0,K,A*3D

1570187317906,$GNRMC,110838.00,A,5422.511534,N,01836.244364,E,0.0,,041019,2.9,E,A,V*73

1570187317907,$GNGGA,110838.00,5422.511534,N,01836.244364,E,1,09,0.9,27.3,M,34.5,M,,*4C

1570187318888,$GPGSV,4,1,13,08,14,187,16,11,61,199,15,14,53,082,31,17,26,314,12,1*69

1570187318888,$GPGSV,4,2,13,19,11,326,15,31,14,108,30,32,35,054,15,01,82,226,,1*69

1570187318889,$GPGSV,4,3,13,03,45,253,,18,61,143,,22,69,250,,23,07,202,,1*61

1570187318889,$GPGSV,4,4,13,28,08,277,,1*56

1570187318889,$GLGSV,1,1,04,76,15,007,28,67,23,047,30,82,02,154,,69,42,229,,1*7C

1570187318891,$GAGSV,1,1,02,05,34,056,22,31,07,018,,7*7C

1570187318892,$PQGSV,1,1,0,0*43

1570187318892,$PQGSV,3,1,09,02,04,109,22,06,19,043,27,09,42,059,14,16,26,046,31,0*7F

1570187318893,$PQGSV,3,2,09,21,42,066,26,05,18,133,,11,43,187,,14,50,232,,0*7D

1570187318893,$PQGSV,3,3,09,28,35,303,,0*46

1570187318901,$GNGSA,A,3,08,11,14,17,31,32,,,,,,,1.3,0.9,0.8,1*3A

1570187318902,$GNGSA,A,2,67,76,,,,,,,,,,,1.3,0.9,0.8,2*30

1570187318903,$GNGSA,A,2,05,,,,,,,,,,,,1.3,0.9,0.8,3*34

1570187318903,$GNVTG,,T,,M,0.0,N,0.0,K,A*3D

1570187318904,$GNRMC,110839.00,A,5422.511573,N,01836.244501,E,0.0,,041019,2.9,E,A,V*74

1570187318904,$GNGGA,110839.00,5422.511573,N,01836.244501,E,1,09,0.9,27.2,M,34.5,M,,*4A

1570187319889,$GPGSV,4,1,13,08,14,187,16,11,61,199,15,14,53,082,29,17,26,314,12,1*60

1570187319889,$GPGSV,4,2,13,19,11,326,15,31,14,108,30,32,35,054,15,01,82,226,,1*69

1570187319890,$GPGSV,4,3,13,03,45,253,,18,61,143,,22,69,250,,23,07,202,,1*61

1570187319890,$GPGSV,4,4,13,28,08,277,,1*56

1570187319890,$GLGSV,1,1,04,76,15,007,29,67,23,047,30,82,02,154,,69,42,229,,1*7D

1570187319890,$GAGSV,1,1,02,05,34,056,21,31,07,018,,7*7F

1570187319890,$PQGSV,1,1,0,0*43

1570187319890,$PQGSV,3,1,09,02,04,109,24,06,19,043,27,09,42,059,14,16,26,046,31,0*79

1570187319891,$PQGSV,3,2,09,21,42,066,25,05,18,133,,11,43,187,,14,50,232,,0*7E

1570187319891,$PQGSV,3,3,09,28,35,303,,0*46

1570187319897,$GNGSA,A,3,08,11,14,17,31,32,,,,,,,1.3,0.9,0.8,1*3A

1570187319898,$GNGSA,A,2,67,76,,,,,,,,,,,1.3,0.9,0.8,2*30

1570187319898,$GNGSA,A,2,05,,,,,,,,,,,,1.3,0.9,0.8,3*34

1570187319898,$GNVTG,,T,,M,0.0,N,0.0,K,A*3D

1570187319899,$GNRMC,110840.00,A,5422.511601,N,01836.244594,E,0.0,,041019,2.9,E,A,V*70

1570187319899,$GNGGA,110840.00,5422.511601,N,01836.244594,E,1,09,0.9,27.1,M,34.5,M,,*4D

1570187320894,$GPGSV,4,1,13,08,14,187,18,11,61,199,15,14,53,082,29,17,26,314,12,1*6E

1570187320895,$GPGSV,4,2,13,19,11,326,15,31,14,108,32,32,35,054,15,01,82,226,,1*6B

1570187320895,$GPGSV,4,3,13,03,45,253,,18,61,143,,22,69,250,,23,07,202,,1*61

1570187320895,$GPGSV,4,4,13,28,08,277,,1*56

1570187320896,$GLGSV,1,1,04,76,15,007,28,67,23,047,31,82,02,154,,69,42,229,,1*7D

1570187320896,$GAGSV,1,1,02,05,34,056,22,31,07,018,,7*7C

1570187320897,$PQGSV,1,1,0,0*43

1570187320897,$PQGSV,3,1,09,02,04,109,24,06,19,043,27,09,42,059,14,16,26,046,31,0*79

1570187320897,$PQGSV,3,2,09,21,42,066,24,05,18,133,,11,43,187,,14,50,232,,0*7F

1570187320897,$PQGSV,3,3,09,28,35,303,,0*46

1570187320905,$GNGSA,A,3,08,11,14,31,32,,,,,,,,1.6,1.3,0.9,1*33

1570187320906,$GNGSA,A,2,67,76,,,,,,,,,,,1.6,1.3,0.9,2*3F

1570187320906,$GNGSA,A,2,05,,,,,,,,,,,,1.6,1.3,0.9,3*3B

1570187320906,$GNVTG,,T,,M,0.0,N,0.0,K,A*3D

1570187320907,$GNRMC,110841.00,A,5422.511652,N,01836.244735,E,0.0,,041019,2.9,E,A,V*7E

1570187320908,$GNGGA,110841.00,5422.511652,N,01836.244735,E,1,08,1.3,27.2,M,34.5,M,,*4A

1570187321888,$GPGSV,4,1,13,08,14,187,18,11,61,199,15,14,53,082,29,17,26,314,12,1*6E

1570187321889,$GPGSV,4,2,13,19,11,326,15,31,14,108,30,32,35,054,15,01,82,226,,1*69

1570187321889,$GPGSV,4,3,13,03,45,253,,18,61,143,,22,69,250,,23,07,202,,1*61

1570187321889,$GPGSV,4,4,13,28,08,277,,1*56

1570187321889,$GLGSV,1,1,04,76,15,007,27,67,23,047,29,82,02,154,,69,42,229,,1*7B

1570187321890,$GAGSV,1,1,02,05,34,056,19,31,07,018,18,7*7D

1570187321890,$PQGSV,1,1,0,0*43

1570187321890,$PQGSV,3,1,09,02,04,109,24,06,19,043,26,09,42,059,14,16,26,046,29,0*71

1570187321891,$PQGSV,3,2,09,21,42,066,23,05,18,133,,11,43,187,,14,50,232,,0*78

1570187321891,$PQGSV,3,3,09,28,35,303,,0*46

1570187321902,$GNGSA,A,3,08,11,14,19,31,32,,,,,,,1.2,0.9,0.8,1*35

1570187321902,$GNGSA,A,2,67,76,,,,,,,,,,,1.2,0.9,0.8,2*31

1570187321903,$GNGSA,A,2,05,31,,,,,,,,,,,1.2,0.9,0.8,3*37

1570187321903,$GNVTG,,T,,M,0.0,N,0.0,K,A*3D

1570187321903,$GNRMC,110842.00,A,5422.511710,N,01836.245041,E,0.0,,041019,2.9,E,A,V*7F

1570187321904,$GNGGA,110842.00,5422.511710,N,01836.245041,E,1,10,0.9,27.2,M,34.5,M,,*49

1570187322887,$GPGSV,4,1,13,01,82,226,16,08,14,187,15,11,61,199,18,14,53,082,30,1*6B

1570187322888,$GPGSV,4,2,13,17,26,314,12,19,11,326,15,31,14,108,31,32,35,054,15,1*62

1570187322888,$GPGSV,4,3,13,03,45,253,,18,61,143,,22,69,250,,23,07,202,,1*61

1570187322888,$GPGSV,4,4,13,28,08,277,,1*56

1570187322888,$GLGSV,1,1,04,76,15,007,28,67,23,047,31,82,02,154,,69,42,229,,1*7D

1570187322888,$GAGSV,1,1,02,05,34,056,22,31,07,018,18,7*75

1570187322889,$PQGSV,1,1,0,0*43

1570187322889,$PQGSV,3,1,09,02,04,109,25,06,19,043,27,09,42,059,14,16,26,046,31,0*78

1570187322889,$PQGSV,3,2,09,21,42,066,24,05,18,133,,11,43,187,,14,50,232,,0*7F

1570187322890,$PQGSV,3,3,09,28,35,303,,0*46

1570187322896,$GNGSA,A,3,01,08,11,14,19,31,32,,,,,,1.2,0.9,0.7,1*3B

1570187322896,$GNGSA,A,2,67,76,,,,,,,,,,,1.2,0.9,0.7,2*3E

1570187322897,$GNGSA,A,2,05,31,,,,,,,,,,,1.2,0.9,0.7,3*38

1570187322897,$GNVTG,,T,,M,0.0,N,0.0,K,A*3D

1570187322897,$GNRMC,110843.00,A,5422.511791,N,01836.245373,E,0.0,,041019,2.9,E,A,V*75

1570187322899,$GNGGA,110843.00,5422.511791,N,01836.245373,E,1,11,0.9,27.2,M,34.5,M,,*42

1570187323889,$GPGSV,4,1,13,01,82,226,16,08,14,187,15,11,61,199,16,14,53,082,30,1*65

1570187323889,$GPGSV,4,2,13,17,26,314,12,19,11,326,15,22,69,250,15,31,14,108,30,1*6D

1570187323889,$GPGSV,4,3,13,32,35,054,15,03,45,253,,18,61,143,,23,07,202,,1*6B

1570187323890,$GPGSV,4,4,13,28,08,277,,1*56

1570187323890,$GLGSV,1,1,04,76,15,007,28,67,23,047,30,82,02,154,,69,42,229,,1*7C

1570187323890,$GAGSV,1,1,02,05,34,056,22,31,07,018,19,7*74

1570187323891,$PQGSV,1,1,0,0*43

1570187323891,$PQGSV,3,1,09,02,04,109,25,06,19,043,27,09,42,059,14,16,26,046,31,0*78

1570187323891,$PQGSV,3,2,09,21,42,066,25,05,18,133,,11,43,187,,14,50,232,,0*7E

1570187323892,$PQGSV,3,3,09,28,35,303,,0*46

1570187323903,$GNGSA,A,3,01,08,11,14,19,22,31,32,,,,,1.1,0.9,0.7,1*38

1570187323904,$GNGSA,A,2,67,76,,,,,,,,,,,1.1,0.9,0.7,2*3D

1570187323905,$GNGSA,A,2,05,31,,,,,,,,,,,1.1,0.9,0.7,3*3B

1570187323905,$GNVTG,,T,,M,0.0,N,0.0,K,A*3D

1570187323905,$GNRMC,110844.00,A,5422.511862,N,01836.245679,E,0.0,,041019,2.9,E,A,V*7E

1570187323905,$GNGGA,110844.00,5422.511862,N,01836.245679,E,1,12,0.9,27.1,M,34.5,M,,*49

1570187324887,$GPGSV,4,1,13,01,82,226,16,08,14,187,14,11,61,199,17,14,53,082,30,1*65

1570187324888,$GPGSV,4,2,13,17,26,314,12,19,11,326,15,22,69,250,18,31,14,108,30,1*60

1570187324888,$GPGSV,4,3,13,32,35,054,15,03,45,253,,18,61,143,,23,07,202,,1*6B

1570187324889,$GPGSV,4,4,13,28,08,277,,1*56

1570187324889,$GLGSV,1,1,04,76,15,007,28,67,23,047,30,82,02,154,,69,42,229,,1*7C

1570187324889,$GAGSV,1,1,02,05,34,056,21,31,07,018,20,7*7D

1570187324889,$PQGSV,1,1,0,0*43

1570187324890,$PQGSV,3,1,09,02,04,109,25,06,19,043,27,09,42,059,14,16,26,046,31,0*78

1570187324890,$PQGSV,3,2,09,21,42,066,24,05,18,133,,11,43,187,,14,50,232,,0*7F

1570187324890,$PQGSV,3,3,09,28,35,303,,0*46

1570187324897,$GNGSA,A,3,01,08,11,14,19,22,31,,,,,,1.2,0.9,0.7,1*3A

1570187324899,$GNGSA,A,2,67,76,,,,,,,,,,,1.2,0.9,0.7,2*3E

1570187324899,$GNGSA,A,2,05,31,,,,,,,,,,,1.2,0.9,0.7,3*38

1570187324899,$GNVTG,,T,,M,0.0,N,0.0,K,A*3D

1570187324899,$GNRMC,110845.00,A,5422.511951,N,01836.246058,E,0.0,,041019,2.9,E,A,V*78

1570187324899,$GNGGA,110845.00,5422.511951,N,01836.246058,E,1,11,0.9,27.0,M,34.5,M,,*4D

1570187325891,$GPGSV,4,1,13,01,82,226,16,08,14,187,14,11,61,199,17,14,53,082,30,1*65

1570187325892,$GPGSV,4,2,13,17,26,314,12,19,11,326,15,22,69,250,18,31,14,108,30,1*60

1570187325892,$GPGSV,4,3,13,32,35,054,15,03,45,253,,18,61,143,,23,07,202,,1*6B

1570187325892,$GPGSV,4,4,13,28,08,277,,1*56

1570187325892,$GLGSV,1,1,04,76,15,007,28,67,23,047,30,82,02,154,,69,42,229,,1*7C

1570187325892,$GAGSV,1,1,02,05,34,056,22,31,07,018,20,7*7E

1570187325893,$PQGSV,1,1,0,0*43

1570187325894,$PQGSV,3,1,09,02,04,109,24,06,19,043,27,09,42,059,14,16,26,046,32,0*7A

1570187325894,$PQGSV,3,2,09,21,42,066,24,05,18,133,,11,43,187,,14,50,232,,0*7F

1570187325895,$PQGSV,3,3,09,28,35,303,,0*46

1570187325903,$GNGSA,A,3,01,08,11,14,19,22,31,,,,,,1.2,0.9,0.7,1*3A

1570187325903,$GNGSA,A,2,67,76,,,,,,,,,,,1.2,0.9,0.7,2*3E

1570187325904,$GNGSA,A,2,05,31,,,,,,,,,,,1.2,0.9,0.7,3*38

1570187325904,$GNVTG,,T,,M,0.0,N,0.0,K,A*3D

1570187325904,$GNRMC,110846.00,A,5422.512020,N,01836.246353,E,0.0,,041019,2.9,E,A,V*7F

1570187325905,$GNGGA,110846.00,5422.512020,N,01836.246353,E,1,11,0.9,27.0,M,34.5,M,,*4A

1570187326891,$GPGSV,4,1,13,01,82,226,14,08,14,187,15,11,61,199,18,14,53,082,30,1*69

1570187326892,$GPGSV,4,2,13,17,26,314,12,19,11,326,17,22,69,250,16,31,14,108,30,1*6C

1570187326892,$GPGSV,4,3,13,32,35,054,15,03,45,253,,18,61,143,,23,07,202,,1*6B

1570187326893,$GPGSV,4,4,13,28,08,277,,1*56

1570187326893,$GLGSV,1,1,04,76,15,007,28,67,23,047,30,82,02,154,,69,42,229,,1*7C

1570187326893,$GAGSV,1,1,02,05,34,056,21,31,07,018,17,7*79

1570187326893,$PQGSV,1,1,0,0*43

1570187326894,$PQGSV,3,1,09,02,04,109,24,06,19,043,26,09,42,059,14,16,26,046,31,0*78

1570187326895,$PQGSV,3,2,09,21,42,066,25,05,18,133,,11,43,187,,14,50,232,,0*7E

1570187326896,$PQGSV,3,3,09,28,35,303,,0*46

1570187326903,$GNGSA,A,3,01,08,11,14,19,22,31,,,,,,1.2,0.9,0.7,1*3A

1570187326904,$GNGSA,A,2,67,76,,,,,,,,,,,1.2,0.9,0.7,2*3E

1570187326904,$GNGSA,A,2,05,31,,,,,,,,,,,1.2,0.9,0.7,3*38

1570187326905,$GNVTG,,T,,M,0.0,N,0.0,K,A*3D

1570187326905,$GNRMC,110847.00,A,5422.512098,N,01836.246847,E,0.0,,041019,2.9,E,A,V*73

1570187326905,$GNGGA,110847.00,5422.512098,N,01836.246847,E,1,11,0.9,26.9,M,34.5,M,,*4E

1570187327889,$GPGSV,4,1,13,01,82,226,14,08,14,187,16,11,61,199,18,14,53,082,30,1*6A

1570187327889,$GPGSV,4,2,13,17,26,314,12,19,11,326,17,22,69,250,18,31,14,108,29,1*6A

1570187327889,$GPGSV,4,3,13,32,35,054,15,03,45,253,,18,61,143,,23,07,202,,1*6B

1570187327889,$GPGSV,4,4,13,28,08,277,,1*56

1570187327889,$GLGSV,1,1,04,76,15,007,28,67,23,047,30,82,02,154,,69,42,229,,1*7C

1570187327890,$GAGSV,1,1,02,05,34,056,21,31,07,018,21,7*7C

1570187327890,$PQGSV,1,1,0,0*43

1570187327890,$PQGSV,3,1,09,02,04,109,24,06,19,043,27,09,42,059,14,16,26,046,32,0*7A

1570187327890,$PQGSV,3,2,09,21,42,066,24,05,18,133,,11,43,187,,14,50,232,,0*7F

1570187327891,$PQGSV,3,3,09,28,35,303,,0*46

1570187327897,$GNGSA,A,3,01,08,11,14,19,22,31,,,,,,1.2,0.9,0.7,1*3A

1570187327897,$GNGSA,A,2,67,76,,,,,,,,,,,1.2,0.9,0.7,2*3E

1570187327898,$GNGSA,A,2,05,31,,,,,,,,,,,1.2,0.9,0.7,3*38

1570187327898,$GNVTG,,T,,M,0.0,N,0.0,K,A*3D

1570187327899,$GNRMC,110848.00,A,5422.512201,N,01836.247300,E,0.0,,041019,2.9,E,A,V*77

1570187327899,$GNGGA,110848.00,5422.512201,N,01836.247300,E,1,11,0.9,26.9,M,34.5,M,,*4A

1570187328888,$GPGSV,4,1,13,01,82,226,14,08,14,187,16,11,61,199,16,14,53,082,30,1*64

1570187328888,$GPGSV,4,2,13,17,26,314,12,19,11,326,17,22,69,250,18,31,14,108,30,1*62

1570187328889,$GPGSV,4,3,13,32,35,054,10,03,45,253,,18,61,143,,23,07,202,,1*6E

1570187328889,$GPGSV,4,4,13,28,08,277,,1*56

1570187328889,$GLGSV,1,1,04,76,15,007,28,67,23,047,30,82,02,154,,69,42,229,,1*7C

1570187328889,$GAGSV,1,1,02,05,34,056,22,31,07,018,19,7*74

1570187328890,$PQGSV,1,1,0,0*43

1570187328891,$PQGSV,3,1,09,02,04,109,25,06,19,043,27,09,42,059,14,16,26,046,32,0*7B

1570187328891,$PQGSV,3,2,09,21,42,066,24,05,18,133,,11,43,187,,14,50,232,,0*7F

1570187328892,$PQGSV,3,3,09,28,35,303,,0*46

1570187328905,$GNGSA,A,3,01,08,11,14,19,22,31,32,,,,,1.1,0.9,0.7,1*38

1570187328905,$GNGSA,A,2,67,76,,,,,,,,,,,1.1,0.9,0.7,2*3D

1570187328905,$GNGSA,A,2,05,31,,,,,,,,,,,1.1,0.9,0.7,3*3B

1570187328906,$GNVTG,,T,,M,0.0,N,0.0,K,A*3D

1570187328906,$GNRMC,110849.00,A,5422.512256,N,01836.247548,E,0.0,,041019,2.9,E,A,V*7E

1570187328906,$GNGGA,110849.00,5422.512256,N,01836.247548,E,1,12,0.9,26.9,M,34.5,M,,*40

1570187329888,$GPGSV,4,1,13,01,82,226,14,08,14,187,15,11,61,199,19,14,53,082,30,1*68

1570187329889,$GPGSV,4,2,13,17,26,314,12,19,11,326,15,22,69,250,16,31,14,108,29,1*66

1570187329890,$GPGSV,4,3,13,32,35,054,10,03,45,253,,18,61,143,,23,07,202,,1*6E

1570187329891,$GPGSV,4,4,13,28,08,277,,1*56

1570187329892,$GLGSV,1,1,04,76,15,007,28,67,23,047,30,82,02,154,,69,42,229,,1*7C

1570187329892,$GAGSV,1,1,02,05,34,056,23,31,07,018,19,7*75

1570187329893,$PQGSV,1,1,0,0*43

1570187329894,$PQGSV,3,1,09,02,04,109,25,06,19,043,27,09,42,059,14,16,26,046,31,0*78

1570187329895,$PQGSV,3,2,09,21,42,066,23,05,18,133,,11,43,187,,14,50,232,,0*78

1570187329895,$PQGSV,3,3,09,28,35,303,,0*46

1570187329908,$GNGSA,A,3,01,08,11,14,19,22,31,32,,,,,1.1,0.9,0.7,1*38

1570187329908,$GNGSA,A,2,67,76,,,,,,,,,,,1.1,0.9,0.7,2*3D

1570187329908,$GNGSA,A,2,05,31,,,,,,,,,,,1.1,0.9,0.7,3*3B

1570187329909,$GNVTG,,T,,M,0.0,N,0.0,K,A*3D

1570187329909,$GNRMC,110850.00,A,5422.512292,N,01836.247787,E,0.0,,041019,2.9,E,A,V*7F

1570187329910,$GNGGA,110850.00,5422.512292,N,01836.247787,E,1,12,0.9,26.9,M,34.5,M,,*41

1570187330888,$GPGSV,4,1,13,01,82,226,14,08,14,187,17,11,61,199,19,14,53,082,29,1*62

1570187330888,$GPGSV,4,2,13,17,26,314,12,19,11,326,15,22,69,250,16,31,14,108,30,1*6E

1570187330889,$GPGSV,4,3,13,32,35,054,10,03,45,253,,18,61,143,,23,07,202,,1*6E

1570187330889,$GPGSV,4,4,13,28,08,277,,1*56

1570187330889,$GLGSV,1,1,04,76,15,007,29,67,23,047,30,82,02,154,,69,42,229,,1*7D

1570187330889,$GAGSV,1,1,02,05,34,056,22,31,07,018,20,7*7E

1570187330890,$PQGSV,1,1,0,0*43

1570187330890,$PQGSV,3,1,09,02,04,109,25,06,19,043,27,09,42,059,14,16,26,046,31,0*78

1570187330890,$PQGSV,3,2,09,21,42,066,24,05,18,133,,11,43,187,,14,50,232,,0*7F

1570187330891,$PQGSV,3,3,09,28,35,303,,0*46

1570187330901,$GNGSA,A,3,01,08,11,14,19,22,31,32,,,,,1.1,0.9,0.7,1*38

1570187330903,$GNGSA,A,2,67,76,,,,,,,,,,,1.1,0.9,0.7,2*3D

1570187330903,$GNGSA,A,2,05,31,,,,,,,,,,,1.1,0.9,0.7,3*3B

1570187330904,$GNVTG,,T,,M,0.0,N,0.0,K,A*3D

1570187330904,$GNRMC,110851.00,A,5422.512334,N,01836.247952,E,0.0,,041019,2.9,E,A,V*75

1570187330905,$GNGGA,110851.00,5422.512334,N,01836.247952,E,1,12,0.9,26.9,M,34.5,M,,*4B

1570187331890,$GPGSV,4,1,13,01,82,226,14,08,14,187,18,11,61,199,15,14,53,082,29,1*61

1570187331890,$GPGSV,4,2,13,17,26,314,12,19,11,326,16,22,69,250,16,31,14,108,29,1*65

1570187331891,$GPGSV,4,3,13,32,35,054,10,03,45,253,,18,61,143,,23,07,202,,1*6E

1570187331891,$GPGSV,4,4,13,28,08,277,,1*56

1570187331891,$GLGSV,1,1,04,76,15,007,29,67,23,047,29,82,02,154,,69,42,229,,1*75

1570187331891,$GAGSV,1,1,02,05,34,056,23,31,07,018,20,7*7F

1570187331892,$PQGSV,1,1,0,0*43

1570187331892,$PQGSV,3,1,09,02,04,109,24,06,19,043,27,09,42,059,14,16,26,046,31,0*79

1570187331892,$PQGSV,3,2,09,21,42,066,23,05,18,133,,11,43,187,,14,50,232,,0*78

1570187331893,$PQGSV,3,3,09,28,35,303,,0*46

1570187331904,$GNGSA,A,3,01,08,11,14,19,22,31,32,,,,,1.1,0.9,0.7,1*38

1570187331905,$GNGSA,A,2,67,76,,,,,,,,,,,1.1,0.9,0.7,2*3D

1570187331905,$GNGSA,A,2,05,31,,,,,,,,,,,1.1,0.9,0.7,3*3B

1570187331905,$GNVTG,,T,,M,0.0,N,0.0,K,A*3D

1570187331906,$GNRMC,110852.00,A,5422.512350,N,01836.248173,E,0.0,,041019,2.9,E,A,V*70

1570187331906,$GNGGA,110852.00,5422.512350,N,01836.248173,E,1,12,0.9,26.9,M,34.5,M,,*4E

1570187332888,$GPGSV,4,1,13,01,82,226,14,08,14,187,17,11,61,199,15,14,53,082,29,1*6E

1570187332888,$GPGSV,4,2,13,17,26,314,12,19,11,326,16,22,69,250,16,31,14,108,29,1*65

1570187332888,$GPGSV,4,3,13,32,35,054,10,03,45,253,,18,61,143,,23,07,202,,1*6E

1570187332889,$GPGSV,4,4,13,28,08,277,,1*56

1570187332889,$GLGSV,1,1,04,76,15,007,29,67,23,047,30,82,02,154,,69,42,229,,1*7D

1570187332889,$GAGSV,1,1,02,05,34,056,23,31,07,018,18,7*74

1570187332889,$PQGSV,1,1,0,0*43

1570187332890,$PQGSV,3,1,09,02,04,109,24,06,19,043,27,09,42,059,14,16,26,046,32,0*7A

1570187332890,$PQGSV,3,2,09,21,42,066,23,05,18,133,,11,43,187,,14,50,232,,0*78

1570187332890,$PQGSV,3,3,09,28,35,303,,0*46

1570187332901,$GNGSA,A,3,08,11,14,19,22,31,32,,,,,,1.2,0.9,0.8,1*35

1570187332901,$GNGSA,A,2,67,76,,,,,,,,,,,1.2,0.9,0.8,2*31

1570187332902,$GNGSA,A,2,05,31,,,,,,,,,,,1.2,0.9,0.8,3*37

1570187332902,$GNVTG,,T,,M,0.0,N,0.0,K,A*3D

1570187332902,$GNRMC,110853.00,A,5422.512362,N,01836.248298,E,0.0,,041019,2.9,E,A,V*76

1570187332903,$GNGGA,110853.00,5422.512362,N,01836.248298,E,1,11,0.9,26.9,M,34.5,M,,*4B

1570187333888,$GPGSV,4,1,13,01,82,226,14,08,14,187,17,11,61,199,15,14,53,082,29,1*6E

1570187333889,$GPGSV,4,2,13,19,11,326,16,22,69,250,16,31,14,108,29,32,35,054,13,1*66

1570187333889,$GPGSV,4,3,13,03,45,253,,17,26,314,,18,61,143,,23,07,202,,1*6D

1570187333890,$GPGSV,4,4,13,28,08,277,,1*56

1570187333890,$GLGSV,1,1,04,76,15,007,29,67,23,047,30,82,02,154,,69,42,229,,1*7D

1570187333890,$GAGSV,1,1,02,05,34,056,23,31,07,018,19,7*75

1570187333890,$PQGSV,1,1,0,0*43

1570187333890,$PQGSV,3,1,09,02,04,109,24,06,19,043,27,09,42,059,14,16,26,046,32,0*7A

1570187333891,$PQGSV,3,2,09,21,42,066,23,05,18,133,,11,43,187,,14,50,232,,0*78

1570187333891,$PQGSV,3,3,09,28,35,303,,0*46

1570187333898,$GNGSA,A,3,08,11,14,19,22,31,32,,,,,,1.2,0.9,0.8,1*35

1570187333899,$GNGSA,A,2,67,76,,,,,,,,,,,1.2,0.9,0.8,2*31

1570187333899,$GNGSA,A,2,05,31,,,,,,,,,,,1.2,0.9,0.8,3*37

1570187333900,$GNVTG,,T,,M,0.0,N,0.0,K,A*3D

1570187333900,$GNRMC,110854.00,A,5422.512369,N,01836.248443,E,0.0,,041019,2.9,E,A,V*7A

1570187333900,$GNGGA,110854.00,5422.512369,N,01836.248443,E,1,11,0.9,26.8,M,34.5,M,,*46

1570187334886,$GPGSV,4,1,13,01,82,226,14,08,14,187,17,11,61,199,15,14,53,082,29,1*6E

1570187334886,$GPGSV,4,2,13,19,11,326,16,22,69,250,16,31,14,108,29,32,35,054,13,1*66

1570187334887,$GPGSV,4,3,13,03,45,253,,17,26,314,,18,61,143,,23,07,202,,1*6D

1570187334887,$GPGSV,4,4,13,28,08,277,,1*56

1570187334887,$GLGSV,1,1,04,76,15,007,29,67,23,047,30,82,02,154,,69,42,229,,1*7D

1570187334887,$GAGSV,1,1,02,05,34,056,23,31,07,018,20,7*7F

1570187334888,$PQGSV,1,1,0,0*43

1570187334888,$PQGSV,2,1,08,02,04,109,25,06,19,043,27,09,42,059,14,16,26,046,32,0*7B

1570187334888,$PQGSV,2,2,08,21,42,066,23,11,43,187,,14,50,232,,28,35,303,,0*79

1570187334896,$GNGSA,A,3,08,11,14,19,22,31,32,,,,,,1.2,0.9,0.8,1*35

1570187334897,$GNGSA,A,2,67,76,,,,,,,,,,,1.2,0.9,0.8,2*31

1570187334899,$GNGSA,A,2,05,31,,,,,,,,,,,1.2,0.9,0.8,3*37

1570187334900,$GNVTG,,T,,M,0.0,N,0.0,K,A*3D

1570187334901,$GNRMC,110855.00,A,5422.512373,N,01836.248528,E,0.0,,041019,2.9,E,A,V*7C

1570187334901,$GNGGA,110855.00,5422.512373,N,01836.248528,E,1,11,0.9,26.8,M,34.5,M,,*40

1570187335888,$GPGSV,4,1,13,01,82,226,14,08,14,187,17,11,61,199,12,14,53,082,29,1*69

1570187335890,$GPGSV,4,2,13,19,11,326,16,22,69,250,16,31,14,108,29,32,35,054,13,1*66

1570187335891,$GPGSV,4,3,13,03,45,253,,17,26,314,,18,61,143,,23,07,202,,1*6D

1570187335891,$GPGSV,4,4,13,28,08,277,,1*56

1570187335891,$GLGSV,1,1,04,76,15,007,29,67,23,047,29,82,02,154,,69,42,229,,1*75

1570187335893,$GAGSV,1,1,02,05,34,056,23,31,07,018,20,7*7F

1570187335894,$PQGSV,1,1,0,0*43

1570187335895,$PQGSV,2,1,08,02,04,109,25,06,19,043,27,09,42,059,14,16,26,046,32,0*7B

1570187335895,$PQGSV,2,2,08,21,42,066,23,11,43,187,,14,50,232,,28,35,303,,0*79

1570187335902,$GNGSA,A,3,08,11,14,19,22,31,32,,,,,,1.2,0.9,0.8,1*35

1570187335902,$GNGSA,A,2,67,76,,,,,,,,,,,1.2,0.9,0.8,2*31

1570187335903,$GNGSA,A,2,05,31,,,,,,,,,,,1.2,0.9,0.8,3*37

1570187335903,$GNVTG,,T,,M,0.0,N,0.0,K,A*3D

1570187335904,$GNRMC,110856.00,A,5422.512376,N,01836.248577,E,0.0,,041019,2.9,E,A,V*70

1570187335904,$GNGGA,110856.00,5422.512376,N,01836.248577,E,1,11,0.9,26.8,M,34.5,M,,*4C

1570187336887,$GPGSV,4,1,13,01,82,226,14,08,14,187,18,11,61,199,12,14,53,082,29,1*66

1570187336888,$GPGSV,4,2,13,19,11,326,15,22,69,250,15,31,14,108,28,32,35,054,13,1*67

1570187336890,$GPGSV,4,3,13,03,45,253,,17,26,314,,18,61,143,,23,07,202,,1*6D

1570187336890,$GPGSV,4,4,13,28,08,277,,1*56

1570187336890,$GLGSV,1,1,04,76,15,007,28,67,23,047,29,82,02,154,,69,42,229,,1*74

1570187336891,$GAGSV,1,1,02,05,34,056,23,31,07,018,18,7*74

1570187336891,$PQGSV,1,1,0,0*43

1570187336891,$PQGSV,2,1,08,02,04,109,25,06,19,043,27,09,42,059,14,16,26,046,31,0*78

1570187336892,$PQGSV,2,2,08,21,42,066,21,11,43,187,,14,50,232,,28,35,303,,0*7B

1570187336903,$GNGSA,A,3,08,11,14,19,22,31,32,,,,,,1.2,0.9,0.8,1*35

1570187336904,$GNGSA,A,2,67,76,,,,,,,,,,,1.2,0.9,0.8,2*31

1570187336904,$GNGSA,A,2,05,31,,,,,,,,,,,1.2,0.9,0.8,3*37

1570187336904,$GNVTG,,T,,M,0.0,N,0.0,K,A*3D

1570187336904,$GNRMC,110857.00,A,5422.512379,N,01836.248738,E,0.0,,041019,2.9,E,A,V*77

1570187336904,$GNGGA,110857.00,5422.512379,N,01836.248738,E,1,11,0.9,26.7,M,34.5,M,,*44

1570187337889,$GPGSV,4,1,13,01,82,226,14,08,14,187,18,11,61,199,12,14,53,082,29,1*66

1570187337890,$GPGSV,4,2,13,19,11,326,15,22,69,250,15,31,14,108,29,32,35,054,13,1*66

1570187337890,$GPGSV,4,3,13,03,45,253,,17,26,314,,18,61,143,,23,07,202,,1*6D

1570187337890,$GPGSV,4,4,13,28,08,277,,1*56

1570187337890,$GLGSV,1,1,04,76,15,007,29,67,23,047,30,82,02,154,,69,42,229,,1*7D

1570187337890,$GAGSV,1,1,02,05,34,056,23,31,07,018,20,7*7F

1570187337891,$PQGSV,1,1,0,0*43

1570187337891,$PQGSV,2,1,08,02,04,109,25,06,19,043,27,09,42,059,14,16,26,046,31,0*78

1570187337891,$PQGSV,2,2,08,21,42,066,23,11,43,187,,14,50,232,,28,35,303,,0*79

1570187337898,$GNGSA,A,3,08,11,14,19,22,31,32,,,,,,1.2,0.9,0.8,1*35

1570187337898,$GNGSA,A,2,67,76,,,,,,,,,,,1.2,0.9,0.8,2*31

1570187337899,$GNGSA,A,2,05,31,,,,,,,,,,,1.2,0.9,0.8,3*37

1570187337900,$GNVTG,,T,,M,0.0,N,0.0,K,A*3D

1570187337900,$GNRMC,110858.00,A,5422.512380,N,01836.248826,E,0.0,,041019,2.9,E,A,V*7E

1570187337901,$GNGGA,110858.00,5422.512380,N,01836.248826,E,1,11,0.9,26.7,M,34.5,M,,*4D

1570187338887,$GPGSV,4,1,13,01,82,226,14,08,14,187,17,11,61,199,13,14,53,082,29,1*68

1570187338887,$GPGSV,4,2,13,19,11,326,16,22,69,250,16,31,14,108,28,32,35,054,13,1*67

1570187338888,$GPGSV,4,3,13,03,45,253,,17,26,314,,18,61,143,,23,07,202,,1*6D

1570187338889,$GPGSV,4,4,13,28,08,277,,1*56

1570187338889,$GLGSV,1,1,04,76,15,007,29,67,23,047,29,82,02,154,,69,42,229,,1*75

1570187338889,$GAGSV,1,1,02,05,34,056,24,31,07,018,19,7*72

1570187338889,$PQGSV,1,1,0,0*43

1570187338889,$PQGSV,2,1,08,02,04,109,25,06,19,043,28,09,42,059,14,16,26,046,31,0*77

1570187338890,$PQGSV,2,2,08,21,42,066,22,11,43,187,,14,50,232,,28,35,303,,0*78

1570187338898,$GNGSA,A,3,08,11,14,19,22,31,32,,,,,,1.2,0.9,0.8,1*35

1570187338899,$GNGSA,A,2,67,76,,,,,,,,,,,1.2,0.9,0.8,2*31

1570187338903,$GNGSA,A,2,05,31,,,,,,,,,,,1.2,0.9,0.8,3*37

1570187338903,$GNVTG,,T,,M,0.0,N,0.0,K,A*3D

1570187338906,$GNRMC,110859.00,A,5422.512386,N,01836.248931,E,0.0,,041019,2.9,E,A,V*7E

1570187338906,$GNGGA,110859.00,5422.512386,N,01836.248931,E,1,11,0.9,26.7,M,34.5,M,,*4D

1570187339888,$GPGSV,4,1,13,01,82,226,14,08,14,187,19,11,61,199,13,14,53,082,29,1*66

1570187339888,$GPGSV,4,2,13,19,11,326,16,22,69,250,16,31,14,108,29,32,35,054,12,1*67

1570187339889,$GPGSV,4,3,13,03,45,253,,17,26,314,,18,61,143,,23,07,202,,1*6D

1570187339889,$GPGSV,4,4,13,28,08,277,,1*56

1570187339889,$GLGSV,1,1,04,76,15,007,28,67,23,047,29,82,02,154,,69,42,229,,1*74

1570187339891,$GAGSV,1,1,02,05,34,056,24,31,07,018,20,7*78

1570187339891,$PQGSV,1,1,0,0*43

1570187339892,$PQGSV,2,1,08,02,04,109,25,06,19,043,27,09,42,059,14,16,26,046,32,0*7B

1570187339892,$PQGSV,2,2,08,21,42,066,22,11,43,187,,14,50,232,,28,35,303,,0*78

1570187339905,$GNGSA,A,3,08,11,14,19,22,31,32,,,,,,1.2,0.9,0.8,1*35

1570187339905,$GNGSA,A,2,67,76,,,,,,,,,,,1.2,0.9,0.8,2*31

1570187339905,$GNGSA,A,2,05,31,,,,,,,,,,,1.2,0.9,0.8,3*37

1570187339906,$GNVTG,,T,,M,0.0,N,0.0,K,A*3D

1570187339906,$GNRMC,110900.00,A,5422.512391,N,01836.248992,E,0.0,,041019,2.9,E,A,V*7C

1570187339906,$GNGGA,110900.00,5422.512391,N,01836.248992,E,1,11,0.9,26.7,M,34.5,M,,*4F

1570187340889,$GPGSV,4,1,13,01,82,226,14,08,14,187,17,11,61,199,13,14,53,082,29,1*68

1570187340890,$GPGSV,4,2,13,19,11,326,16,22,69,250,16,31,14,108,28,32,35,054,12,1*66

1570187340890,$GPGSV,4,3,13,03,45,253,,17,26,314,,18,61,143,,23,07,202,,1*6D

1570187340890,$GPGSV,4,4,13,28,08,277,,1*56

1570187340890,$GLGSV,1,1,04,76,15,007,29,67,23,047,29,82,02,154,,69,42,229,,1*75

1570187340891,$GAGSV,1,1,02,05,34,056,23,31,07,018,21,7*7E

1570187340891,$PQGSV,1,1,0,0*43

1570187340891,$PQGSV,2,1,08,02,04,109,25,06,19,043,27,16,26,046,31,21,42,066,22,0*7B

1570187340891,$PQGSV,2,2,08,09,42,059,,11,43,187,,14,50,232,,28,35,303,,0*7E

1570187340906,$GNGSA,A,3,08,11,14,19,22,31,32,,,,,,1.2,0.9,0.8,1*35

1570187340906,$GNGSA,A,2,67,76,,,,,,,,,,,1.2,0.9,0.8,2*31

1570187340907,$GNGSA,A,2,05,31,,,,,,,,,,,1.2,0.9,0.8,3*37

1570187340907,$GNVTG,,T,,M,0.0,N,0.0,K,A*3D

1570187340908,$GNRMC,110901.00,A,5422.512392,N,01836.249027,E,0.0,,041019,2.9,E,A,V*78

1570187340908,$GNGGA,110901.00,5422.512392,N,01836.249027,E,1,11,0.9,26.7,M,34.5,M,,*4B

1570187341892,$GPGSV,4,1,13,01,82,226,14,08,14,187,18,11,61,199,14,14,53,082,28,1*61

1570187341894,$GPGSV,4,2,13,19,11,326,15,22,69,250,16,31,14,108,28,32,35,054,12,1*65

1570187341895,$GPGSV,4,3,13,03,45,253,,17,26,314,,18,61,143,,23,07,202,,1*6D

1570187341895,$GPGSV,4,4,13,28,08,277,,1*56

1570187341896,$GLGSV,1,1,04,76,15,007,29,67,23,047,28,82,02,154,,69,42,229,,1*74

1570187341896,$GAGSV,1,1,02,05,34,056,22,31,07,018,20,7*7E

1570187341897,$PQGSV,1,1,0,0*43

1570187341897,$PQGSV,2,1,08,02,04,109,25,06,19,043,26,16,26,046,31,21,42,066,20,0*78

1570187341897,$PQGSV,2,2,08,09,42,059,,11,43,187,,14,50,232,,28,35,303,,0*7E

1570187341909,$GNGSA,A,3,08,11,14,19,22,31,32,,,,,,1.2,0.9,0.8,1*35

1570187341911,$GNGSA,A,2,67,76,,,,,,,,,,,1.2,0.9,0.8,2*31

1570187341911,$GNGSA,A,2,05,31,,,,,,,,,,,1.2,0.9,0.8,3*37

1570187341912,$GNVTG,,T,,M,0.0,N,0.0,K,A*3D

1570187341912,$GNRMC,110902.00,A,5422.512400,N,01836.249137,E,0.0,,041019,2.9,E,A,V*77

1570187341913,$GNGGA,110902.00,5422.512400,N,01836.249137,E,1,11,0.9,26.6,M,34.5,M,,*45

1570187342890,$GPGSV,4,1,13,01,82,226,14,08,14,187,17,11,61,199,14,14,53,082,28,1*6E

1570187342890,$GPGSV,4,2,13,17,26,314,13,18,61,143,12,19,11,326,15,22,69,250,16,1*69

1570187342890,$GPGSV,4,3,13,31,14,108,28,32,35,054,12,03,45,253,,23,07,202,,1*60

1570187342890,$GPGSV,4,4,13,28,08,277,,1*56

1570187342890,$GLGSV,1,1,04,76,15,007,29,67,23,047,28,82,02,154,,69,42,229,,1*74

1570187342891,$GAGSV,1,1,02,05,34,056,23,31,07,018,20,7*7F

1570187342891,$PQGSV,1,1,0,0*43

1570187342891,$PQGSV,2,1,08,02,04,109,25,06,19,043,27,16,26,046,31,21,42,066,19,0*73

1570187342891,$PQGSV,2,2,08,09,42,059,,11,43,187,,14,50,232,,28,35,303,,0*7E

1570187342902,$GNGSA,A,3,08,11,14,17,18,19,22,31,32,,,,1.1,0.8,0.7,1*37

1570187342902,$GNGSA,A,2,67,76,,,,,,,,,,,1.1,0.8,0.7,2*3C

1570187342902,$GNGSA,A,2,05,31,,,,,,,,,,,1.1,0.8,0.7,3*3A

1570187342903,$GNVTG,,T,,M,0.0,N,0.0,K,A*3D

1570187342903,$GNRMC,110903.00,A,5422.512404,N,01836.249200,E,0.0,,041019,2.9,E,A,V*75

1570187342903,$GNGGA,110903.00,5422.512404,N,01836.249200,E,1,12,0.8,26.6,M,34.5,M,,*45

1570187343890,$GPGSV,4,1,13,01,82,226,14,08,14,187,16,11,61,199,15,14,53,082,28,1*6E

1570187343891,$GPGSV,4,2,13,17,26,314,13,18,61,143,12,19,11,326,15,22,69,250,13,1*6C

1570187343892,$GPGSV,4,3,13,31,14,108,28,32,35,054,12,03,45,253,,23,07,202,,1*60

1570187343892,$GPGSV,4,4,13,28,08,277,,1*56

1570187343892,$GLGSV,1,1,04,76,15,007,29,67,23,047,28,82,02,154,,69,42,229,,1*74

1570187343893,$GAGSV,1,1,02,05,34,056,22,31,07,018,19,7*74

1570187343893,$PQGSV,1,1,0,0*43

1570187343893,$PQGSV,2,1,08,02,04,109,25,06,19,043,27,16,26,046,31,21,42,066,18,0*72

1570187343893,$PQGSV,2,2,08,09,42,059,,11,43,187,,14,50,232,,28,35,303,,0*7E

1570187343904,$GNGSA,A,3,08,11,14,17,18,19,22,31,32,,,,1.1,0.8,0.7,1*37

1570187343904,$GNGSA,A,2,67,76,,,,,,,,,,,1.1,0.8,0.7,2*3C

1570187343905,$GNGSA,A,2,05,31,,,,,,,,,,,1.1,0.8,0.7,3*3A

1570187343905,$GNVTG,,T,,M,0.0,N,0.0,K,A*3D

1570187343905,$GNRMC,110904.00,A,5422.512412,N,01836.249266,E,0.0,,041019,2.9,E,A,V*75

1570187343906,$GNGGA,110904.00,5422.512412,N,01836.249266,E,1,12,0.8,26.6,M,34.5,M,,*45

1570187344893,$GPGSV,4,1,13,01,82,226,14,08,14,187,17,11,61,199,15,14,53,082,29,1*6E

1570187344893,$GPGSV,4,2,13,17,26,314,13,18,61,143,12,19,11,326,15,22,69,250,13,1*6C

1570187344894,$GPGSV,4,3,13,31,14,108,28,32,35,054,12,03,45,253,,23,07,202,,1*60

1570187344895,$GPGSV,4,4,13,28,08,277,,1*56

1570187344895,$GLGSV,1,1,04,76,15,007,29,67,23,047,28,82,02,154,,69,42,229,,1*74

1570187344895,$GAGSV,1,1,02,05,34,056,23,31,07,018,20,7*7F

1570187344896,$PQGSV,1,1,0,0*43

1570187344896,$PQGSV,2,1,08,02,04,109,25,06,19,043,27,16,26,046,31,21,42,066,22,0*7B

1570187344896,$PQGSV,2,2,08,09,42,059,,11,43,187,,14,50,232,,28,35,303,,0*7E

1570187344902,$GNGSA,A,3,08,11,14,17,18,19,22,31,32,,,,1.1,0.8,0.7,1*37

1570187344903,$GNGSA,A,2,67,76,,,,,,,,,,,1.1,0.8,0.7,2*3C

1570187344903,$GNGSA,A,2,05,31,,,,,,,,,,,1.1,0.8,0.7,3*3A

1570187344904,$GNVTG,,T,,M,0.0,N,0.0,K,A*3D

1570187344906,$GNRMC,110905.00,A,5422.512416,N,01836.249313,E,0.0,,041019,2.9,E,A,V*73

1570187344906,$GNGGA,110905.00,5422.512416,N,01836.249313,E,1,12,0.8,26.6,M,34.5,M,,*43

1570187345888,$GPGSV,4,1,13,01,82,226,12,08,14,187,17,11,61,199,15,14,53,082,28,1*69

1570187345889,$GPGSV,4,2,13,17,26,314,13,18,61,143,16,19,11,326,15,22,69,250,13,1*68

1570187345889,$GPGSV,4,3,13,31,14,108,28,32,35,054,12,03,45,253,,23,07,202,,1*60

1570187345890,$GPGSV,4,4,13,28,08,277,,1*56

1570187345890,$GLGSV,1,1,04,76,15,007,29,67,23,047,28,82,02,154,,69,42,229,,1*74

1570187345891,$GAGSV,1,1,02,05,34,056,22,31,07,018,19,7*74

1570187345891,$PQGSV,1,1,0,0*43

1570187345892,$PQGSV,2,1,08,02,04,109,25,06,19,043,27,16,26,046,31,21,42,066,21,0*78

1570187345893,$PQGSV,2,2,08,09,42,059,,11,43,187,,14,50,232,,28,35,303,,0*7E

1570187345905,$GNGSA,A,3,01,08,11,14,17,18,19,22,31,,,,1.1,0.9,0.7,1*36

1570187345906,$GNGSA,A,2,67,76,,,,,,,,,,,1.1,0.9,0.7,2*3D

1570187345906,$GNGSA,A,2,05,31,,,,,,,,,,,1.1,0.9,0.7,3*3B

1570187345906,$GNVTG,,T,,M,0.0,N,0.0,K,A*3D

1570187345906,$GNRMC,110906.00,A,5422.512421,N,01836.249360,E,0.0,,041019,2.9,E,A,V*70

1570187345907,$GNGGA,110906.00,5422.512421,N,01836.249360,E,1,12,0.9,26.5,M,34.5,M,,*42

1570187633591,$GPGSA,A,1,,,,,,,,,,,,,,,*1E

1570187633592,$GNGSA,A,1,,,,,,,,,,,,,,,*00

1570187633593,$PQGSA,A,1,,,,,,,,,,,,,,,*08

1570187633593,$GPVTG,,T,,M,,N,,K,N*2C

1570187633593,$GPRMC,,V,,,,,,,,,,N,V*29

1570187633594,$GPGGA,,,,,,0,,,,,,,,*66

1570187633881,$GPGSA,A,1,,,,,,,,,,,,,,,*1E

1570187633882,$GNGSA,A,1,,,,,,,,,,,,,,,*00

1570187633882,$PQGSA,A,1,,,,,,,,,,,,,,,*08

1570187633883,$GPVTG,,T,,M,,N,,K,N*2C

1570187633883,$GPRMC,,V,,,,,,,,,,N,V*29

1570187633883,$GPGGA,,,,,,0,,,,,,,,*66

1570187634885,$GPGSV,4,1,13,01,82,206,,03,48,254,,08,11,187,,11,59,196,,1*64

1570187634885,$GPGSV,4,2,13,14,52,080,,17,27,313,,18,59,143,,19,13,324,,1*64

1570187634885,$GPGSV,4,3,13,22,71,251,,23,09,202,,28,07,275,,31,15,106,,1*65

1570187634885,$GPGSV,4,4,13,32,33,053,,1*51

1570187634885,$GLGSV,1,1,04,82,00,000,,76,15,005,,69,45,230,,67,21,047,,1*78

1570187634886,$GAGSV,1,1,03,05,32,056,,26,00,000,,31,07,016,,7*41

1570187634886,$PQGSV,1,1,0,0*43

1570187634886,$PQGSV,1,1,0,0*43

1570187634886,$GPGSA,A,1,,,,,,,,,,,,,,,*1E

1570187634887,$GNGSA,A,1,,,,,,,,,,,,,,,*00

1570187634887,$PQGSA,A,1,,,,,,,,,,,,,,,*08

1570187634887,$GPVTG,,T,,M,,N,,K,N*2C

1570187634887,$GPRMC,,V,,,,,,,,,,N,V*29

1570187634887,$GPGGA,,,,,,0,,,,,,,,*66

1570187635167,$GPGSV,4,1,13,14,52,080,19,31,15,106,25,32,33,053,24,01,82,206,,1*69

1570187635167,$GPGSV,4,2,13,03,48,254,,08,11,187,,11,59,196,,17,27,313,,1*6A

1570187635167,$GPGSV,4,3,13,18,59,143,,19,13,324,,22,71,251,,23,09,202,,1*65

1570187635168,$GPGSV,4,4,13,28,07,275,,1*5B

1570187635168,$GLGSV,1,1,04,82,00,000,,76,15,005,,69,45,230,,67,21,047,,1*78

1570187635168,$GAGSV,1,1,03,05,32,056,,26,00,000,,31,07,016,,7*41

1570187635168,$PQGSV,1,1,0,0*43

1570187635168,$PQGSV,1,1,0,0*43

1570187635170,$GPGSA,A,1,,,,,,,,,,,,,,,*1E

1570187635170,$GNGSA,A,1,,,,,,,,,,,,,,,*00

1570187635171,$PQGSA,A,1,,,,,,,,,,,,,,,*08

1570187635171,$GPVTG,,T,,M,,N,,K,N*2C

1570187635171,$GPRMC,,V,,,,,,,,,,N,V*29

1570187635171,$GPGGA,,,,,,0,,,,,,,,*66

1570187635885,$GPGSV,4,1,13,14,52,080,19,31,15,106,25,32,33,053,24,01,82,206,,1*69

1570187635885,$GPGSV,4,2,13,03,48,254,,08,11,187,,11,59,196,,17,27,313,,1*6A

1570187635885,$GPGSV,4,3,13,18,59,143,,19,13,324,,22,71,251,,23,09,202,,1*65

1570187635885,$GPGSV,4,4,13,28,07,275,,1*5B

1570187635885,$GLGSV,1,1,04,67,21,047,24,82,00,000,,76,15,005,,69,45,230,,1*7E

1570187635885,$GAGSV,1,1,03,05,32,056,,26,00,000,,31,07,016,,7*41

1570187635885,$PQGSV,1,1,0,0*43

1570187635885,$PQGSV,1,1,0,0*43

1570187635887,$GPGSA,A,1,,,,,,,,,,,,,,,*1E

1570187635887,$GNGSA,A,1,,,,,,,,,,,,,,,*00

1570187635887,$PQGSA,A,1,,,,,,,,,,,,,,,*08

1570187635888,$GPVTG,,T,,M,,N,,K,N*2C

1570187635888,$GPRMC,,V,,,,,,,,,,N,V*29

1570187635888,$GPGGA,,,,,,0,,,,,,,,*66

1570187636884,$GPGSV,4,1,13,14,52,080,15,31,15,106,26,32,33,053,25,01,82,206,,1*67

1570187636884,$GPGSV,4,2,13,03,48,254,,08,11,187,,11,59,196,,17,27,313,,1*6A

1570187636885,$GPGSV,4,3,13,18,59,143,,19,13,324,,22,71,251,,23,09,202,,1*65

1570187636885,$GPGSV,4,4,13,28,07,275,,1*5B

1570187636885,$GLGSV,1,1,04,67,21,047,25,82,00,000,,76,15,005,,69,45,230,,1*7F

1570187636885,$GAGSV,1,1,03,05,32,056,,26,00,000,,31,07,016,,7*41

1570187636885,$PQGSV,1,1,0,0*43

1570187636885,$PQGSV,1,1,0,0*43

1570187636890,$GPGSA,A,1,,,,,,,,,,,,,,,*1E

1570187636890,$GNGSA,A,1,,,,,,,,,,,,,,,*00

1570187636891,$PQGSA,A,1,,,,,,,,,,,,,,,*08

1570187636891,$GPVTG,,T,,M,,N,,K,N*2C

1570187636891,$GPRMC,,V,,,,,,,,,,N,V*29

1570187636891,$GPGGA,,,,,,0,,,,,,,,*66

1570187637886,$GPGSV,4,1,13,14,52,080,15,31,15,106,28,32,33,053,27,01,82,206,,1*6B

1570187637886,$GPGSV,4,2,13,03,48,254,,08,11,187,,11,59,196,,17,27,313,,1*6A

1570187637886,$GPGSV,4,3,13,18,59,143,,19,13,324,,22,71,251,,23,09,202,,1*65

1570187637887,$GPGSV,4,4,13,28,07,275,,1*5B

1570187637887,$GLGSV,1,1,04,67,21,047,24,82,00,000,,76,15,005,,69,45,230,,1*7E

1570187637887,$GAGSV,1,1,03,05,32,056,,26,00,000,,31,07,016,,7*41

1570187637887,$PQGSV,1,1,0,0*43

1570187637887,$PQGSV,1,1,0,0*43

1570187637893,$GPGSA,A,1,,,,,,,,,,,,,,,*1E

1570187637894,$GNGSA,A,1,,,,,,,,,,,,,,,*00

1570187637894,$PQGSA,A,1,,,,,,,,,,,,,,,*08

1570187637894,$GPVTG,,T,,M,,N,,K,N*2C

1570187637894,$GPRMC,,V,,,,,,,,,,N,V*29

1570187637894,$GPGGA,,,,,,0,,,,,,,,*66

